{"2500155500|West Provincetown":[{"name":"Herring Cove Beach","cat":"Beach","lat":42.04354,"lon":-70.21696},{"name":"Race Point Beach","cat":"Beach","lat":42.06727,"lon":-70.23209},{"name":"Provincetown Museum","cat":"Museum","lat":42.05252,"lon":-70.18918},{"name":"Old Harbor Life Saving Museum","cat":"Museum","lat":42.08003,"lon":-70.21639},{"name":"The Provincetown Theater","cat":"Theater","lat":42.05905,"lon":-70.17577},{"name":"Art House Theater","cat":"Theater","lat":42.04959,"lon":-70.189}],"2500174385|South Wellfleet":[{"name":"Duck Harbor Beach","cat":"Beach","lat":41.94344,"lon":-70.07641},{"name":"Mayo Beach","cat":"Beach","lat":41.93011,"lon":-70.04113},{"name":"Wellfleet Historical Society Museum","cat":"Museum","lat":41.9385,"lon":-70.0301},{"name":"Atwood-Higgins House","cat":"Museum","lat":41.95386,"lon":-70.05913},{"name":"Cannon Hill Park","cat":"Park","lat":41.93582,"lon":-70.02547},{"name":"Paine Hollow/Pleasant Pt Rd","cat":"Nature reserve","lat":41.91213,"lon":-70.0056}],"2500170605|Central Truro":[{"name":"Highland Beach","cat":"Beach","lat":42.04788,"lon":-70.07114},{"name":"Longnook Beach","cat":"Beach","lat":42.02094,"lon":-70.03697},{"name":"Highland/Cape Cod Light","cat":"Museum","lat":42.03922,"lon":-70.06209},{"name":"Highland House Museum","cat":"Museum","lat":42.03887,"lon":-70.06486},{"name":"Snows Field","cat":"Park","lat":42.00069,"lon":-70.05877},{"name":"Pilgrim Pond Park","cat":"Park","lat":42.03252,"lon":-70.09009}],"2500119295|Southeast Eastham":[{"name":"Nauset Light Beach","cat":"Beach","lat":41.85905,"lon":-69.95117},{"name":"Coast Guard Beach","cat":"Beach","lat":41.84506,"lon":-69.94716},{"name":"Wiley Park","cat":"Park","lat":41.83391,"lon":-69.99518},{"name":"Windmill Green","cat":"Park","lat":41.8305,"lon":-69.97492},{"name":"Heller Land","cat":"Nature reserve","lat":41.82112,"lon":-69.97203},{"name":"Vankeuren & Feldman Land","cat":"Nature reserve","lat":41.80156,"lon":-70.00085}],"2500119295|North Eastham":[{"name":"Sunken Meadow Beach","cat":"Beach","lat":41.87186,"lon":-70.00883},{"name":"Campground Beach","cat":"Beach","lat":41.85098,"lon":-70.00613},{"name":"Eastham 1869 Schoolhouse Museum","cat":"Museum","lat":41.83857,"lon":-69.97406},{"name":"Mill Field","cat":"Park","lat":41.87412,"lon":-70.00211},{"name":"Mill Field","cat":"Park","lat":41.87386,"lon":-70.00123},{"name":"Stoehr & Nicholsa Land","cat":"Nature reserve","lat":41.87154,"lon":-69.97769}],"2500151440|South Orleans":[{"name":"Skaket Beach","cat":"Beach","lat":41.79594,"lon":-70.01613},{"name":"Rock Harbor Beach","cat":"Beach","lat":41.79989,"lon":-70.00854},{"name":"Hog Island Beer Co.","cat":"Brewery","lat":41.783,"lon":-70.00078},{"name":"Eldredge Park","cat":"Park","lat":41.78202,"lon":-69.98864},{"name":"Nickerson State Park","cat":"Nature reserve","lat":41.79254,"lon":-70.01897},{"name":"Heyelman Property","cat":"Nature reserve","lat":41.73872,"lon":-69.97662}],"2500151440|East Orleans":[{"name":"Nauset Beach","cat":"Beach","lat":41.78706,"lon":-69.93585},{"name":"Nauset Beach","cat":"Beach","lat":41.78764,"lon":-69.93614},{"name":"French Cable Station Museum","cat":"Museum","lat":41.78784,"lon":-69.98751},{"name":"French Cable Station Museum","cat":"Museum","lat":41.78785,"lon":-69.9875},{"name":"Windmill Park","cat":"Park","lat":41.79378,"lon":-69.98373},{"name":"Areys Pond Boat Yard Cr","cat":"Nature reserve","lat":41.76288,"lon":-69.98183}],"2500112995|North Chatham":[{"name":"Strong Island Beach","cat":"Beach","lat":41.72311,"lon":-69.95442},{"name":"Chatham Marconi Maritime Center","cat":"Museum","lat":41.70375,"lon":-69.98019},{"name":"Chatham Railroad Museum","cat":"Museum","lat":41.68572,"lon":-69.96162},{"name":"Monomy Theatre","cat":"Theater","lat":41.68457,"lon":-69.96464},{"name":"Veterans' Park","cat":"Park","lat":41.68494,"lon":-69.96256},{"name":"Kate Gould Park","cat":"Park","lat":41.68037,"lon":-69.95656}],"2500112995|Central Chatham":[{"name":"Hardings Beach","cat":"Beach","lat":41.66333,"lon":-69.99006},{"name":"Forest Beach","cat":"Beach","lat":41.67013,"lon":-70.02188},{"name":"Atwood House Museum","cat":"Museum","lat":41.67355,"lon":-69.96511},{"name":"Lighthouse Park","cat":"Park","lat":41.67199,"lon":-69.94932},{"name":"Nickerson Park","cat":"Park","lat":41.68236,"lon":-69.96204},{"name":"Red River Conservation Area","cat":"Nature reserve","lat":41.67824,"lon":-70.03178}],"2500107980|West Brewster":[{"name":"Ellis Landing Beach","cat":"Beach","lat":41.77568,"lon":-70.05489},{"name":"Point of Rocks Landing Beach","cat":"Beach","lat":41.77233,"lon":-70.0703},{"name":"Cobb House Museum","cat":"Museum","lat":41.76168,"lon":-70.0876},{"name":"Stony Brook Grist Mill & Museum","cat":"Museum","lat":41.74468,"lon":-70.11259},{"name":"Drummer Boy Park","cat":"Park","lat":41.7529,"lon":-70.12008},{"name":"Belmont Park","cat":"Park","lat":41.70966,"lon":-70.12541}],"2500107980|East Brewster":[{"name":"Crosby Landing Beach","cat":"Beach","lat":41.78417,"lon":-70.0338},{"name":"Cape Rep Outdoor Theatre","cat":"Theater","lat":41.77762,"lon":-70.03681},{"name":"Cape Rep Indoor Theatre","cat":"Theater","lat":41.77822,"lon":-70.03739},{"name":"Town of Brewster vacant structure","cat":"Park","lat":41.7741,"lon":-70.04166},{"name":"Cape Cod Sea Camps","cat":"Park","lat":41.77645,"lon":-70.04399},{"name":"Thompson","cat":"Nature reserve","lat":41.76459,"lon":-70.01018}],"2500129020|North Harwich":[{"name":"Pleasant Road Beach","cat":"Beach","lat":41.65972,"lon":-70.10621},{"name":"Earle Road Beach","cat":"Beach","lat":41.6616,"lon":-70.09692},{"name":"Brooks Academy Museum","cat":"Museum","lat":41.68544,"lon":-70.07666},{"name":"Herring River Greenbelt","cat":"Nature reserve","lat":41.6896,"lon":-70.12309},{"name":"Slowatycki Property","cat":"Nature reserve","lat":41.68318,"lon":-70.09634},{"name":"Milanos Italian Kitchen","cat":"Restaurant","lat":41.66996,"lon":-70.09745}],"2500129020|East Harwich":[{"name":"Brooks Park","cat":"Park","lat":41.68744,"lon":-70.06946},{"name":"Josephs Pond Landing","cat":"Nature reserve","lat":41.70107,"lon":-70.04673},{"name":"Brett Family Conservation Restriction","cat":"Nature reserve","lat":41.71951,"lon":-70.07098},{"name":"Brenton I Wixon Memorial Park","cat":"Historic site","lat":41.72446,"lon":-70.04264},{"name":"Outer Bar & Grille","cat":"Restaurant","lat":41.72157,"lon":-69.99498},{"name":"Twenty-Eight Atlantic","cat":"Restaurant","lat":41.72261,"lon":-69.99527}],"2500129020|Harwich Port":[{"name":"Bank Street Beach","cat":"Beach","lat":41.66345,"lon":-70.07057},{"name":"Red River Beach","cat":"Beach","lat":41.66738,"lon":-70.04118},{"name":"Larsen Park","cat":"Park","lat":41.66815,"lon":-70.06595},{"name":"Yasuna Property","cat":"Nature reserve","lat":41.66755,"lon":-70.04727},{"name":"Red River Swamp Conservation Area","cat":"Nature reserve","lat":41.67599,"lon":-70.03511},{"name":"Cape Roots Market Cafe","cat":"Cafe","lat":41.66778,"lon":-70.07386}],"2500116775|New Boston":[{"name":"Chapin Memorial Beach","cat":"Beach","lat":41.73205,"lon":-70.23419},{"name":"Horsefoot Path Beach","cat":"Beach","lat":41.74077,"lon":-70.2213},{"name":"Josiah Dennis Manse Museum","cat":"Museum","lat":41.7395,"lon":-70.19885},{"name":"Cape Cod Museum of Art","cat":"Museum","lat":41.74009,"lon":-70.19421},{"name":"Cape Cod Playhouse","cat":"Theater","lat":41.74069,"lon":-70.19188},{"name":"Scargo Park","cat":"Park","lat":41.7411,"lon":-70.17777}],"2500116775|East Dennis":[{"name":"Sesuit Beach","cat":"Beach","lat":41.75622,"lon":-70.15224},{"name":"Crowe's Pasture","cat":"Beach","lat":41.76007,"lon":-70.13261},{"name":"Welch Property At Crowes Pasture","cat":"Nature reserve","lat":41.75188,"lon":-70.13659},{"name":"Conservation Land/Deerfield St","cat":"Nature reserve","lat":41.73704,"lon":-70.17255},{"name":"Grumpy's","cat":"Restaurant","lat":41.74376,"lon":-70.16748},{"name":"The Marshside Restaurant","cat":"Restaurant","lat":41.74429,"lon":-70.16206}],"2500116775|South Dennis":[{"name":"Johnny Kelley Park","cat":"Park","lat":41.7,"lon":-70.15901},{"name":"Conservation Land/Windsor Ave","cat":"Nature reserve","lat":41.71016,"lon":-70.17001},{"name":"Conservation Land/Old Chatham","cat":"Nature reserve","lat":41.70196,"lon":-70.13831},{"name":"Starbucks","cat":"Cafe","lat":41.69568,"lon":-70.15057},{"name":"Red Cottage Restaurant","cat":"Restaurant","lat":41.69412,"lon":-70.15968},{"name":"Jason's Tavern","cat":"Restaurant","lat":41.69486,"lon":-70.15029}],"2500116775|Dennis Port":[{"name":"Glendon Road Beach","cat":"Beach","lat":41.65067,"lon":-70.14224},{"name":"Sea Street Beach","cat":"Beach","lat":41.65223,"lon":-70.13419},{"name":"Haigis Beach","cat":"Park","lat":41.65115,"lon":-70.1484},{"name":"Conservation Land/Depot St","cat":"Nature reserve","lat":41.68494,"lon":-70.12716},{"name":"Conservation Land/Depot St","cat":"Nature reserve","lat":41.68049,"lon":-70.12596},{"name":"The Oyster company","cat":"Restaurant","lat":41.66634,"lon":-70.12619}],"2500116775|West Dennis":[{"name":"Bass River Park","cat":"Park","lat":41.66554,"lon":-70.18081},{"name":"Bass River Park","cat":"Park","lat":41.66558,"lon":-70.18041},{"name":"Kelly Property","cat":"Nature reserve","lat":41.68198,"lon":-70.15267},{"name":"Baker Land","cat":"Nature reserve","lat":41.67329,"lon":-70.15416},{"name":"Captain Baker Donut Shop","cat":"Cafe","lat":41.6658,"lon":-70.16455}],"2500182525|Yarmouth Port":[{"name":"Grays Beach","cat":"Beach","lat":41.72329,"lon":-70.235},{"name":"Grays Beach","cat":"Park","lat":41.7224,"lon":-70.23461},{"name":"Whites Brook Floodplain","cat":"Nature reserve","lat":41.72233,"lon":-70.22076},{"name":"Whites Brook Floodplain","cat":"Nature reserve","lat":41.72042,"lon":-70.2222}],"2500182525|Northeast Yarmouth":[{"name":"Edward Gorey House","cat":"Museum","lat":41.7054,"lon":-70.24252},{"name":"Captain Bangs Hallet House","cat":"Museum","lat":41.70486,"lon":-70.24322},{"name":"Town Land","cat":"Nature reserve","lat":41.6956,"lon":-70.23164},{"name":"Wellfield","cat":"Nature reserve","lat":41.69526,"lon":-70.19306},{"name":"Old Yarmouth Inn","cat":"Restaurant","lat":41.70389,"lon":-70.24531}],"2500182525|East Yarmouth":[{"name":"Salt Box Beach","cat":"Beach","lat":41.67844,"lon":-70.1703},{"name":"Flax Pond","cat":"Beach","lat":41.6836,"lon":-70.18525},{"name":"Hazelmoor Park","cat":"Park","lat":41.6761,"lon":-70.20054},{"name":"Peter Homer Park","cat":"Park","lat":41.68539,"lon":-70.21785},{"name":"Captain Small Road","cat":"Nature reserve","lat":41.67828,"lon":-70.20334},{"name":"Water Department Land","cat":"Nature reserve","lat":41.67723,"lon":-70.21543}],"2500182525|Bass River":[{"name":"Thachers Beach","cat":"Beach","lat":41.6382,"lon":-70.21708},{"name":"Bass River Beach","cat":"Beach","lat":41.64372,"lon":-70.19919},{"name":"Matachee Road Park","cat":"Park","lat":41.64522,"lon":-70.21498},{"name":"Matachee Road Park","cat":"Park","lat":41.6443,"lon":-70.21465},{"name":"Long Pond Drive Fish Ladder","cat":"Nature reserve","lat":41.666,"lon":-70.20497},{"name":"Smith Road","cat":"Nature reserve","lat":41.66629,"lon":-70.19664}],"2500182525|Central Yarmouth":[{"name":"Swan Lake Association Beach","cat":"Beach","lat":41.65937,"lon":-70.21647},{"name":"Plashes Pond","cat":"Beach","lat":41.66736,"lon":-70.22255},{"name":"Whydah Pirate Museum","cat":"Museum","lat":41.65011,"lon":-70.22496},{"name":"Reid Park","cat":"Park","lat":41.65701,"lon":-70.23518},{"name":"Sandy Pond Recreation Area Park","cat":"Park","lat":41.66336,"lon":-70.24951},{"name":"Water Department Land","cat":"Nature reserve","lat":41.67095,"lon":-70.23628}],"2500182525|Southwest Yarmouth":[{"name":"Englewood Beach","cat":"Beach","lat":41.64088,"lon":-70.24518},{"name":"Seagull Beach","cat":"Beach","lat":41.6347,"lon":-70.22497},{"name":"Mill Creek Park","cat":"Park","lat":41.65315,"lon":-70.25253},{"name":"Chase Brook Park","cat":"Park","lat":41.6537,"lon":-70.25384},{"name":"Lewis Pond Marsh","cat":"Nature reserve","lat":41.63635,"lon":-70.23007},{"name":"Lewis Pond Marsh","cat":"Nature reserve","lat":41.64085,"lon":-70.22595}],"2500103690|Village of Barnstable":[{"name":"Sandy Neck Beach","cat":"Beach","lat":41.73955,"lon":-70.37864},{"name":"Millway Beach","cat":"Beach","lat":41.70838,"lon":-70.29744},{"name":"US Coast Guard Heritage Museum","cat":"Museum","lat":41.70025,"lon":-70.29888},{"name":"Barnstable Historical Soceity - Phinney Jones House","cat":"Museum","lat":41.70293,"lon":-70.30779},{"name":"Sunset Lane Beach Access","cat":"Park","lat":41.70987,"lon":-70.29473},{"name":"Great Marsh","cat":"Nature reserve","lat":41.72666,"lon":-70.35221}],"2500103690|East Barnstable":[{"name":"Keyes Memorial Beach","cat":"Beach","lat":41.63539,"lon":-70.29113},{"name":"Hyannis Port Beach","cat":"Beach","lat":41.63344,"lon":-70.29835},{"name":"Cape Cod Maritime Museum","cat":"Museum","lat":41.65155,"lon":-70.2795},{"name":"Guyer Barn","cat":"Museum","lat":41.65121,"lon":-70.28401},{"name":"Cape Cod Melody Tent","cat":"Theater","lat":41.64713,"lon":-70.29836},{"name":"Hyannis Arts Center","cat":"Theater","lat":41.65462,"lon":-70.28171}],"2500103690|Centerville":[{"name":"Christian Camp Meeting Beach","cat":"Beach","lat":41.63629,"lon":-70.33671},{"name":"Centerville Historical Museum","cat":"Museum","lat":41.64715,"lon":-70.34626},{"name":"Mothers Park","cat":"Park","lat":41.65385,"lon":-70.34381},{"name":"Aaron S. Crosby Park","cat":"Park","lat":41.65123,"lon":-70.33777},{"name":"Isham Marsh","cat":"Nature reserve","lat":41.64318,"lon":-70.36526},{"name":"Skunknett River Wildlife Sanctuary","cat":"Nature reserve","lat":41.64853,"lon":-70.37235}],"2500103690|Central Barnstable":[{"name":"Wequaquet Lake Beach","cat":"Beach","lat":41.67974,"lon":-70.34824},{"name":"Opeechee Heights Beach","cat":"Beach","lat":41.66447,"lon":-70.34726},{"name":"Whelan Conservation Area","cat":"Nature reserve","lat":41.6778,"lon":-70.3727},{"name":"Gooseberry Island","cat":"Nature reserve","lat":41.6701,"lon":-70.32879},{"name":"Casual Gourmet","cat":"Cafe","lat":41.65793,"lon":-70.34405},{"name":"The Ninety Nine","cat":"Restaurant","lat":41.65799,"lon":-70.34551}],"2500103690|Mills Village":[{"name":"Playground/Field","cat":"Park","lat":41.65372,"lon":-70.38546},{"name":"Ellen A. McBarron Field","cat":"Park","lat":41.67129,"lon":-70.377},{"name":"Lumbert Pond Conservation Area","cat":"Nature reserve","lat":41.65976,"lon":-70.37476},{"name":"Small Cr","cat":"Nature reserve","lat":41.65786,"lon":-70.36369}],"2500103690|Osterville":[{"name":"Dowses Beach","cat":"Beach","lat":41.62233,"lon":-70.36613},{"name":"Wianno Beach","cat":"Beach","lat":41.614,"lon":-70.37447},{"name":"Armstrong-Kelley Park","cat":"Park","lat":41.62864,"lon":-70.38042},{"name":"Osterville Library Park","cat":"Park","lat":41.62712,"lon":-70.38486},{"name":"Sampsons Island","cat":"Nature reserve","lat":41.60684,"lon":-70.4285},{"name":"Cr #30","cat":"Nature reserve","lat":41.61286,"lon":-70.40881}],"2500103690|Pondsville":[{"name":"Hamblini Pond Beach","cat":"Beach","lat":41.66328,"lon":-70.41043},{"name":"Hamblin Pond Beach","cat":"Park","lat":41.66248,"lon":-70.40956},{"name":"Discover Flying RC- Cape Cod Airfield","cat":"Park","lat":41.68876,"lon":-70.40202},{"name":"Otis Atwood Conservation Area","cat":"Nature reserve","lat":41.68914,"lon":-70.39068},{"name":"Kelly Austin Cr","cat":"Nature reserve","lat":41.70047,"lon":-70.42247},{"name":"Scott Rock","cat":"Historic site","lat":41.70247,"lon":-70.40508}],"2500103690|Cotuit":[{"name":"Oregon Beach","cat":"Beach","lat":41.59611,"lon":-70.44452},{"name":"Loop Beach","cat":"Beach","lat":41.60605,"lon":-70.43701},{"name":"Historical Society of Santuit and Cotuit","cat":"Museum","lat":41.61096,"lon":-70.43748},{"name":"Cahoon Museum of American Art","cat":"Museum","lat":41.63813,"lon":-70.45088},{"name":"Cotuit Memorial Park","cat":"Park","lat":41.61781,"lon":-70.43555},{"name":"Historical Society of Santuit and Cotuit","cat":"Park","lat":41.61111,"lon":-70.4376}],"2500159735|North Sandwich":[{"name":"Town Beach","cat":"Beach","lat":41.7737,"lon":-70.49175},{"name":"Town Neck Beach","cat":"Beach","lat":41.76959,"lon":-70.48635},{"name":"Hoxie House","cat":"Museum","lat":41.75503,"lon":-70.49851},{"name":"Sandwich Glass Museum","cat":"Museum","lat":41.75868,"lon":-70.5004},{"name":"Tree House Brewing Company","cat":"Brewery","lat":41.7721,"lon":-70.49185},{"name":"Cape Cod Canal Access","cat":"Park","lat":41.77204,"lon":-70.50333}],"2500159735|Plowed Neck":[{"name":"Springhill Beach","cat":"Beach","lat":41.75566,"lon":-70.45308},{"name":"East Sandwich Beach","cat":"Beach","lat":41.75427,"lon":-70.44753},{"name":"Benjamin Nye Homestead and Museum","cat":"Museum","lat":41.72864,"lon":-70.43148},{"name":"Wing Fort House","cat":"Museum","lat":41.7508,"lon":-70.46391},{"name":"Springhill Beach","cat":"Nature reserve","lat":41.76131,"lon":-70.47434},{"name":"Scorton Creek Coastal Access","cat":"Nature reserve","lat":41.74758,"lon":-70.43007}],"2500159735|Camp Burgess":[{"name":"Sandwich Beach","cat":"Beach","lat":41.70718,"lon":-70.45482},{"name":"Camp Burgess Waterfront","cat":"Beach","lat":41.69918,"lon":-70.45563},{"name":"Rolling Ridge Park","cat":"Park","lat":41.69945,"lon":-70.43636},{"name":"Lowell Holly Reservation","cat":"Nature reserve","lat":41.66128,"lon":-70.47453},{"name":"Triangle Pond Access","cat":"Nature reserve","lat":41.69178,"lon":-70.44959},{"name":"The Lookout","cat":"Scenic view","lat":41.70399,"lon":-70.41905}],"2500159735|Forestdale":[{"name":"Peters Pond at Oakcrest Cove Beach","cat":"Beach","lat":41.69441,"lon":-70.48901},{"name":"Snake Pond Beach","cat":"Beach","lat":41.67914,"lon":-70.51859},{"name":"Oak Crest Cove Park","cat":"Park","lat":41.69912,"lon":-70.48584},{"name":"Wakeby Pond Access","cat":"Nature reserve","lat":41.6726,"lon":-70.49934},{"name":"Fisk Forestdale Lot","cat":"Nature reserve","lat":41.70358,"lon":-70.49197},{"name":"Sandwich Taverna","cat":"Restaurant","lat":41.71373,"lon":-70.48927}],"2500107175|North Bourne":[{"name":"Taylors Point Beach","cat":"Beach","lat":41.7456,"lon":-70.62138},{"name":"Taylors Point Beach","cat":"Beach","lat":41.74289,"lon":-70.62413},{"name":"Queen Sewell Park","cat":"Park","lat":41.75457,"lon":-70.60662},{"name":"Taylors Point Park","cat":"Park","lat":41.74357,"lon":-70.62088},{"name":"Nightingale Pond Conservation Land","cat":"Nature reserve","lat":41.75569,"lon":-70.59104},{"name":"Little Buttermilk Bay","cat":"Nature reserve","lat":41.76011,"lon":-70.60486}],"2500107175|Sagamore Beach":[{"name":"Sagamore Beach","cat":"Beach","lat":41.79344,"lon":-70.52031},{"name":"The Strand","cat":"Beach","lat":41.80784,"lon":-70.53585},{"name":"Keith Field","cat":"Park","lat":41.77399,"lon":-70.54015},{"name":"North Sagamore Playground","cat":"Park","lat":41.79438,"lon":-70.53257},{"name":"Bourne Settlement Open Space","cat":"Nature reserve","lat":41.77187,"lon":-70.55521},{"name":"Clark Pond","cat":"Nature reserve","lat":41.78969,"lon":-70.52809}],"2500107175|Gray Gables":[{"name":"Monument Beach","cat":"Beach","lat":41.71538,"lon":-70.61475},{"name":"Monument Beach","cat":"Beach","lat":41.72183,"lon":-70.61701},{"name":"Bourne Historical Society","cat":"Museum","lat":41.74334,"lon":-70.59679},{"name":"The Cape Cod Military Museum","cat":"Park","lat":41.74334,"lon":-70.5968},{"name":"Aptucxet Trading Post Mueseum","cat":"Park","lat":41.74103,"lon":-70.60427},{"name":"Pocasset River Marsh","cat":"Nature reserve","lat":41.69787,"lon":-70.61405}],"2500107175|Pocasset":[{"name":"Merriam Beach","cat":"Beach","lat":41.66677,"lon":-70.63698},{"name":"Southwest Beach","cat":"Beach","lat":41.66261,"lon":-70.64948},{"name":"Picture Lake Park","cat":"Park","lat":41.69023,"lon":-70.59243},{"name":"Picture Lake Park","cat":"Park","lat":41.69066,"lon":-70.60017},{"name":"Scraggy Neck Forest","cat":"Nature reserve","lat":41.66623,"lon":-70.64405},{"name":"Pocasset River","cat":"Nature reserve","lat":41.69755,"lon":-70.60954}],"2500107175|East Bourne":[{"name":"HU-16 Albatross","cat":"Historic site","lat":41.66484,"lon":-70.52617},{"name":"HU-25 Falcon","cat":"Historic site","lat":41.66477,"lon":-70.52645},{"name":"Base Cape Cod Galley","cat":"Restaurant","lat":41.66555,"lon":-70.52577}],"2500123105|Old Silver Beach":[{"name":"Black Beach","cat":"Beach","lat":41.59177,"lon":-70.6467},{"name":"Chappaquoit Beach","cat":"Beach","lat":41.6015,"lon":-70.65086},{"name":"Saconesset Homestead and Museum","cat":"Museum","lat":41.60711,"lon":-70.6331},{"name":"Swift Park","cat":"Park","lat":41.60068,"lon":-70.63468},{"name":"Nye Park","cat":"Park","lat":41.65078,"lon":-70.62051},{"name":"Great Sippewissett Marsh","cat":"Nature reserve","lat":41.58639,"lon":-70.64317}],"2500123105|Central Falmouth":[{"name":"Cathedral Pines","cat":"Park","lat":41.59242,"lon":-70.62672},{"name":"Crane Wildlife Reservation Field","cat":"Park","lat":41.63481,"lon":-70.56119},{"name":"Great Sippewissett Marsh","cat":"Nature reserve","lat":41.58541,"lon":-70.6395},{"name":"Spectacle Pond Reservation","cat":"Nature reserve","lat":41.58467,"lon":-70.59307},{"name":"Thai Kitchen","cat":"Restaurant","lat":41.56734,"lon":-70.59542}],"2500123105|Smalltown":[{"name":"Childs River Access","cat":"Park","lat":41.57904,"lon":-70.53204},{"name":"Ashumet Holly Wildlife Sanctuary","cat":"Nature reserve","lat":41.62312,"lon":-70.53609},{"name":"Wallers Island Marsh","cat":"Nature reserve","lat":41.57164,"lon":-70.54339},{"name":"Moonakis Cafe","cat":"Restaurant","lat":41.5878,"lon":-70.51764},{"name":"Moonakis Cafe","cat":"Restaurant","lat":41.58782,"lon":-70.51758}],"2500123105|East Falmouth":[{"name":"Menauhant Beach","cat":"Beach","lat":41.54976,"lon":-70.55516},{"name":"Menahaunt Beach","cat":"Beach","lat":41.54937,"lon":-70.55739},{"name":"Bad Martha Brewery","cat":"Brewery","lat":41.57919,"lon":-70.54248},{"name":"Coonamessett Greenway Heritage Trail","cat":"Park","lat":41.58358,"lon":-70.57206},{"name":"Fonseca Park","cat":"Park","lat":41.59175,"lon":-70.53443},{"name":"Carter Reservation","cat":"Nature reserve","lat":41.5744,"lon":-70.55253}],"2500123105|Teaticket":[{"name":"Bristol Beach","cat":"Beach","lat":41.54561,"lon":-70.58961},{"name":"Marina Park Amphitheater","cat":"Theater","lat":41.54953,"lon":-70.60347},{"name":"Teaticket Park","cat":"Park","lat":41.56586,"lon":-70.59385},{"name":"Kite Park","cat":"Park","lat":41.54313,"lon":-70.60392},{"name":"Little Pond","cat":"Nature reserve","lat":41.54617,"lon":-70.58798},{"name":"Little Pond","cat":"Nature reserve","lat":41.54616,"lon":-70.58846}],"2500123105|Quissett":[{"name":"Public Beach Quissett Harbor","cat":"Beach","lat":41.54365,"lon":-70.65533},{"name":"Public Beach Buzzards Bay","cat":"Beach","lat":41.54294,"lon":-70.65885},{"name":"Woods Hole Historical Museum","cat":"Museum","lat":41.52349,"lon":-70.66784},{"name":"Falmouth Museums on the Green","cat":"Museum","lat":41.55526,"lon":-70.6192},{"name":"Highfield Theatre","cat":"Theater","lat":41.55791,"lon":-70.6298},{"name":"Taft's Playground","cat":"Park","lat":41.52883,"lon":-70.67042}],"2500139100|Northeast Mashpee":[{"name":"Naukabout Brewery","cat":"Brewery","lat":41.65005,"lon":-70.48409},{"name":"Park","cat":"Park","lat":41.65938,"lon":-70.46864},{"name":"Attaquin Park","cat":"Park","lat":41.65074,"lon":-70.48332},{"name":"Striar Land","cat":"Nature reserve","lat":41.65927,"lon":-70.46566},{"name":"Striar Land","cat":"Nature reserve","lat":41.66042,"lon":-70.46472},{"name":"Trout's Grave","cat":"Historic site","lat":41.64672,"lon":-70.45334}],"2500139100|Northwest Mashpee":[{"name":"Mashpee Wampanoag Indian Museum","cat":"Museum","lat":41.64931,"lon":-70.48597},{"name":"Collins Lot","cat":"Park","lat":41.64845,"lon":-70.48213},{"name":"Johns Pond Park","cat":"Park","lat":41.64193,"lon":-70.51091},{"name":"Mashpee River Reservation","cat":"Nature reserve","lat":41.62575,"lon":-70.48391},{"name":"Mashpee River Reservation","cat":"Nature reserve","lat":41.62835,"lon":-70.48378},{"name":"Mashpee Veterans' War Monument","cat":"Historic site","lat":41.64868,"lon":-70.48207}],"2500139100|Pine Tree Corner":[{"name":"Mashpee River Woodlands","cat":"Nature reserve","lat":41.6122,"lon":-70.47373},{"name":"Conservation Land","cat":"Nature reserve","lat":41.61331,"lon":-70.47785},{"name":"Starbucks","cat":"Cafe","lat":41.61738,"lon":-70.49036},{"name":"Cape Cod Coffee","cat":"Cafe","lat":41.61567,"lon":-70.49197},{"name":"Bleu","cat":"Restaurant","lat":41.61724,"lon":-70.49047},{"name":"Estia","cat":"Restaurant","lat":41.61681,"lon":-70.4914}],"2500139100|New Seabury":[{"name":"South Cape Beach","cat":"Beach","lat":41.55086,"lon":-70.51044},{"name":"Hurricane beach","cat":"Beach","lat":41.55671,"lon":-70.51496},{"name":"Cape Cod Children's Museum","cat":"Museum","lat":41.59018,"lon":-70.47696},{"name":"South Cape Beach State Park","cat":"Nature reserve","lat":41.55452,"lon":-70.50805},{"name":"Five Islands","cat":"Nature reserve","lat":41.57357,"lon":-70.50451},{"name":"viewing deck","cat":"Scenic view","lat":41.55217,"lon":-70.50005}],"2500353960|Central Pittsfield":[{"name":"Childrens Museum of the Berkshires","cat":"Museum","lat":42.4518,"lon":-73.25276},{"name":"Berkshire Museum","cat":"Museum","lat":42.44734,"lon":-73.25383},{"name":"Colonial Theatre","cat":"Theater","lat":42.44623,"lon":-73.25399},{"name":"Hot Plate Brewing Co","cat":"Brewery","lat":42.44939,"lon":-73.25304},{"name":"The Common","cat":"Park","lat":42.45113,"lon":-73.24931},{"name":"Park Square","cat":"Park","lat":42.44827,"lon":-73.25328}],"2500353960|Lakewood":[{"name":"Crow Playground","cat":"Park","lat":42.45534,"lon":-73.24125},{"name":"Crane Playground","cat":"Park","lat":42.45911,"lon":-73.22907},{"name":"Ayelada","cat":"Restaurant","lat":42.44745,"lon":-73.24411},{"name":"Pizza House","cat":"Restaurant","lat":42.45658,"lon":-73.23647}],"2500353960|Victory Hill":[{"name":"Springside Park","cat":"Park","lat":42.46724,"lon":-73.23795}],"2500353960|Pontoosuc":[{"name":"Wilson Playground","cat":"Park","lat":42.47582,"lon":-73.24877},{"name":"Pontoosuc Lake Park","cat":"Park","lat":42.48564,"lon":-73.24967},{"name":"Ramsey Beach","cat":"Nature reserve","lat":42.47175,"lon":-73.27366},{"name":"Onota Lake Dam","cat":"Nature reserve","lat":42.47584,"lon":-73.26742},{"name":"The Proprietor's Lodge","cat":"Restaurant","lat":42.48848,"lon":-73.25489},{"name":"Old Man Jeff's","cat":"Restaurant","lat":42.47638,"lon":-73.26548}],"2500353960|West Pittsfield":[{"name":"Coolidge Park","cat":"Park","lat":42.45872,"lon":-73.26794},{"name":"Ramsey Beach","cat":"Nature reserve","lat":42.47314,"lon":-73.27361},{"name":"Tierney Conservation Area","cat":"Nature reserve","lat":42.4479,"lon":-73.28458},{"name":"Bimi's Scoops","cat":"Cafe","lat":42.43068,"lon":-73.33569}],"2500353960|Stearnsville":[{"name":"Clapp Park","cat":"Park","lat":42.43949,"lon":-73.26231},{"name":"Osceola Park","cat":"Park","lat":42.44207,"lon":-73.28625},{"name":"Flo's Diner","cat":"Restaurant","lat":42.43598,"lon":-73.30687}],"2500353960|South Pittsfield":[{"name":"Arrowhead","cat":"Museum","lat":42.41539,"lon":-73.24939},{"name":"South Mountain Concert Hall","cat":"Theater","lat":42.42045,"lon":-73.26455},{"name":"Wellesley Park","cat":"Park","lat":42.43564,"lon":-73.2441},{"name":"Wild Acres Park","cat":"Park","lat":42.42758,"lon":-73.2835},{"name":"Kirvin Park","cat":"Nature reserve","lat":42.42152,"lon":-73.20816},{"name":"George L. Darey Housatonic Valley Wildlife Management Area","cat":"Nature reserve","lat":42.40707,"lon":-73.23372}],"2500353960|The Boulders":[{"name":"The Boulders","cat":"Nature reserve","lat":42.48002,"lon":-73.19068},{"name":"Hibachi Buffet","cat":"Restaurant","lat":42.47042,"lon":-73.2046},{"name":"China Wok","cat":"Restaurant","lat":42.46485,"lon":-73.21425}],"2500334340|Greylock Estates":[{"name":"Bill Laston Memorial Field","cat":"Park","lat":42.52955,"lon":-73.23074},{"name":"Memorial Park","cat":"Park","lat":42.50109,"lon":-73.25373},{"name":"Widow White","cat":"Nature reserve","lat":42.54957,"lon":-73.26175},{"name":"Barton's Ledge Wildlife Management Area","cat":"Nature reserve","lat":42.57351,"lon":-73.24049},{"name":"Barton's Ledge view","cat":"Scenic view","lat":42.57108,"lon":-73.24158},{"name":"Coyote Den","cat":"Restaurant","lat":42.51265,"lon":-73.22952}],"2500316180|Central Dalton":[{"name":"Crane Museum of Papermaking","cat":"Museum","lat":42.46966,"lon":-73.17749},{"name":"Chamberlain Park","cat":"Park","lat":42.47237,"lon":-73.15317},{"name":"Greenridge Park","cat":"Park","lat":42.45278,"lon":-73.18546},{"name":"Old Mill Trail","cat":"Nature reserve","lat":42.45879,"lon":-73.13399},{"name":"The Dalton Bakery","cat":"Cafe","lat":42.47352,"lon":-73.17221},{"name":"Juice n' Java","cat":"Cafe","lat":42.47342,"lon":-73.16251}],"2500334970|Eastover":[{"name":"Blacksmith Museum","cat":"Museum","lat":42.35925,"lon":-73.28094},{"name":"The Mount","cat":"Museum","lat":42.33101,"lon":-73.28202},{"name":"West Street Theater","cat":"Theater","lat":42.35595,"lon":-73.29234},{"name":"Tilloston Park","cat":"Park","lat":42.33437,"lon":-73.24723},{"name":"Triangle Park","cat":"Park","lat":42.35975,"lon":-73.28402},{"name":"Parsons Marsh Conservation Area","cat":"Nature reserve","lat":42.35925,"lon":-73.30119}],"2500334655|East Lee":[{"name":"Athletic Field","cat":"Park","lat":42.30141,"lon":-73.24532},{"name":"Dunn Park","cat":"Park","lat":42.30039,"lon":-73.27752},{"name":"Housatonic Fishing Access, Berkshire Natural Resources Council (BNRC)","cat":"Nature reserve","lat":42.28403,"lon":-73.24224},{"name":"Longcope Property","cat":"Nature reserve","lat":42.28792,"lon":-73.27736},{"name":"Dam Overlook Observation Platform","cat":"Scenic view","lat":42.30192,"lon":-73.16905},{"name":"Starving Artist Cafe","cat":"Cafe","lat":42.30533,"lon":-73.24917}],"2500379985|White Oaks":[{"name":"Farm Museum","cat":"Museum","lat":42.72352,"lon":-73.22462},{"name":"Adams Memorial Theatre","cat":"Theater","lat":42.71369,"lon":-73.20733},{"name":"Lower Linear Park","cat":"Park","lat":42.7131,"lon":-73.19125},{"name":"The Spruces","cat":"Park","lat":42.70416,"lon":-73.17931},{"name":"Hunter Property","cat":"Nature reserve","lat":42.71162,"lon":-73.23189},{"name":"Bullock Ledge Wildlife Management Area","cat":"Nature reserve","lat":42.70191,"lon":-73.22413}],"2500379985|South Williamstown":[{"name":"Williamstown House of Local History","cat":"Museum","lat":42.71314,"lon":-73.21148},{"name":"Mehlin Museum of Astronomy","cat":"Museum","lat":42.71149,"lon":-73.20164},{"name":"Blair Hiking Area","cat":"Park","lat":42.6498,"lon":-73.24594},{"name":"Linear Park","cat":"Park","lat":42.70857,"lon":-73.19927},{"name":"Cold Spring Preserve","cat":"Nature reserve","lat":42.70228,"lon":-73.22192},{"name":"Green River Road","cat":"Nature reserve","lat":42.67673,"lon":-73.22039}],"2500346225|Northeast North Adams":[{"name":"Campers Beach","cat":"Beach","lat":42.68609,"lon":-73.09202},{"name":"Kemp Park","cat":"Park","lat":42.69554,"lon":-73.09814},{"name":"Windsor Lake Park","cat":"Park","lat":42.68427,"lon":-73.09452},{"name":"Hoosac Range","cat":"Nature reserve","lat":42.68544,"lon":-73.06503},{"name":"Natural Bridge State Park","cat":"Nature reserve","lat":42.70748,"lon":-73.0898},{"name":"Hoosac Tunnel - Spruce Hill Alignment Tower","cat":"Historic site","lat":42.67538,"lon":-73.06781}],"2500346225|Central North Adams":[{"name":"Western Gateway Heritage State Park","cat":"Park","lat":42.6968,"lon":-73.11374},{"name":"Hoosac Tunnel - Notch Mountain Alignment Tower","cat":"Historic site","lat":42.67553,"lon":-73.12348},{"name":"Busby Farm Cellar Hole","cat":"Historic site","lat":42.66898,"lon":-73.06333},{"name":"Nara Sushi","cat":"Restaurant","lat":42.69485,"lon":-73.11017}],"2500346225|Greylock":[{"name":"Hard Cider Berkshire","cat":"Brewery","lat":42.69833,"lon":-73.15173},{"name":"West End Playground","cat":"Park","lat":42.69552,"lon":-73.14565},{"name":"Brayton Field","cat":"Park","lat":42.69741,"lon":-73.13736},{"name":"Hoosic River Access","cat":"Nature reserve","lat":42.70214,"lon":-73.167},{"name":"Catherine Street Conservation Area","cat":"Nature reserve","lat":42.69252,"lon":-73.15154},{"name":"BrewHaHa","cat":"Cafe","lat":42.69903,"lon":-73.12988}],"2500300555|Maple Grove":[{"name":"Susan B. Anthony Birthplace Museum","cat":"Museum","lat":42.61546,"lon":-73.10234},{"name":"Liberty Street Field","cat":"Park","lat":42.61779,"lon":-73.12001},{"name":"Siara Street Field","cat":"Park","lat":42.6238,"lon":-73.11119},{"name":"Quaker Meeting House","cat":"Historic site","lat":42.62708,"lon":-73.12566},{"name":"Dragon","cat":"Historic site","lat":42.63565,"lon":-73.15298},{"name":"Adams Overlook","cat":"Scenic view","lat":42.63485,"lon":-73.16493}],"2500300555|East Renfrew":[{"name":"Albert Reid Field","cat":"Park","lat":42.63152,"lon":-73.11175},{"name":"George Bowe Park","cat":"Park","lat":42.65163,"lon":-73.11346},{"name":"Massachusetts Veterans War Memorial Tower","cat":"Historic site","lat":42.63726,"lon":-73.16599},{"name":"Adams Station","cat":"Historic site","lat":42.62522,"lon":-73.11704},{"name":"Robinson's Point","cat":"Scenic view","lat":42.64535,"lon":-73.16516},{"name":"Fitch Overlook","cat":"Scenic view","lat":42.65501,"lon":-73.16751}],"2500313345|Central Cheshire":[{"name":"Stafford Hill Memorial","cat":"Park","lat":42.57442,"lon":-73.11465},{"name":"Appalachian Trail Corridor","cat":"Nature reserve","lat":42.5708,"lon":-73.16044},{"name":"Stafford Hill Memorial","cat":"Historic site","lat":42.57451,"lon":-73.1154},{"name":"Daniel Petithory Memorial","cat":"Historic site","lat":42.5625,"lon":-73.15649},{"name":"Common Table Food & Drink","cat":"Restaurant","lat":42.55473,"lon":-73.1653}],"2500367595|Larrywaug":[{"name":"Norman Rockwell Museum","cat":"Museum","lat":42.28783,"lon":-73.33594},{"name":"Chesterwood Museum","cat":"Museum","lat":42.26898,"lon":-73.35344},{"name":"Koussevitsky Music Shed","cat":"Theater","lat":42.34917,"lon":-73.30989},{"name":"Berkshire Botanical Gardens","cat":"Park","lat":42.30286,"lon":-73.33483},{"name":"Bidwell Park","cat":"Park","lat":42.28008,"lon":-73.30716},{"name":"Berle Sky Farm Conservation Restriction","cat":"Nature reserve","lat":42.26951,"lon":-73.35446}],"2500326815|Housatonic":[{"name":"Old Maids Park","cat":"Park","lat":42.25132,"lon":-73.3809},{"name":"Housatonic Common","cat":"Park","lat":42.25523,"lon":-73.36686},{"name":"Monument Mountain","cat":"Nature reserve","lat":42.23849,"lon":-73.33923},{"name":"Root Property","cat":"Nature reserve","lat":42.23431,"lon":-73.34529},{"name":"Devil\u2019s Pulpit overlook","cat":"Scenic view","lat":42.2466,"lon":-73.33961}],"2500326815|Central Great Barrington":[{"name":"Mahaiwe Performing Arts Center","cat":"Theater","lat":42.1942,"lon":-73.36355},{"name":"Newsboy Park","cat":"Park","lat":42.18383,"lon":-73.37031},{"name":"Fountain Pond Park","cat":"Park","lat":42.23669,"lon":-73.3342},{"name":"Housatonic River Access","cat":"Nature reserve","lat":42.17404,"lon":-73.35871},{"name":"Housatonic River Access","cat":"Nature reserve","lat":42.17674,"lon":-73.35888},{"name":"SRIT The Forest for the Trees","cat":"Scenic view","lat":42.21025,"lon":-73.37535}],"2500361065|Sheffield":[{"name":"Sheffield Historical Society","cat":"Museum","lat":42.11133,"lon":-73.35311},{"name":"Barnard Memorial Park","cat":"Park","lat":42.11252,"lon":-73.35196},{"name":"Saunders Site","cat":"Nature reserve","lat":42.11485,"lon":-73.32238},{"name":"Donnelly Cr","cat":"Nature reserve","lat":42.07441,"lon":-73.30109},{"name":"Battlesite Monument","cat":"Historic site","lat":42.14683,"lon":-73.38573},{"name":"view","cat":"Scenic view","lat":42.15483,"lon":-73.33127}],"2500314010|Houghtonville":[{"name":"Clarksburg State Park","cat":"Nature reserve","lat":42.73563,"lon":-73.08149},{"name":"Hairpin Turn","cat":"Scenic view","lat":42.70937,"lon":-73.06297},{"name":"Hot Point","cat":"Scenic view","lat":42.7115,"lon":-73.06066},{"name":"The Golden Eagle Restaurant","cat":"Restaurant","lat":42.7094,"lon":-73.06265}],"2500360225|North Savoy":[{"name":"Trail Head Picnic Area","cat":"Park","lat":42.70344,"lon":-72.95026},{"name":"Reed Brook Preserve","cat":"Nature reserve","lat":42.66391,"lon":-72.99366},{"name":"Savoy Wildlife Management Area","cat":"Nature reserve","lat":42.56739,"lon":-73.07331},{"name":"Plow","cat":"Historic site","lat":42.66596,"lon":-73.01008},{"name":"Hoosac Tunnel East Test Portal","cat":"Historic site","lat":42.675,"lon":-72.99717},{"name":"Raycroft Outlook","cat":"Scenic view","lat":42.68886,"lon":-72.98143}],"2500380685|South Windsor":[{"name":"Notchview - Trustees of Reservations","cat":"Park","lat":42.5051,"lon":-73.037},{"name":"Ashmere Lake State Park","cat":"Nature reserve","lat":42.43978,"lon":-73.07691},{"name":"Savoy Wildlife Management Area","cat":"Nature reserve","lat":42.55346,"lon":-73.05632},{"name":"Friendly Fred's Convenient Store","cat":"Cafe","lat":42.51127,"lon":-73.08399}],"2500304545|Northwest Becket":[{"name":"Iroquis Waterfront","cat":"Beach","lat":42.29541,"lon":-73.07614},{"name":"Becket Historic Quarry and Forest trailhead","cat":"Park","lat":42.25137,"lon":-73.02009},{"name":"Conservation Land","cat":"Nature reserve","lat":42.33477,"lon":-73.10359},{"name":"Conservation Land","cat":"Nature reserve","lat":42.29692,"lon":-73.05958},{"name":"stone chimney","cat":"Historic site","lat":42.36356,"lon":-73.22582},{"name":"Derrick Site","cat":"Scenic view","lat":42.24447,"lon":-73.01721}],"2500330315|Hinsdale":[{"name":"Ml Ransford Athletic Field","cat":"Park","lat":42.43497,"lon":-73.1175},{"name":"amphitheatre","cat":"Park","lat":42.44541,"lon":-73.07792},{"name":"Hinsdale Flats Wildlife Management Area","cat":"Nature reserve","lat":42.4126,"lon":-73.10231},{"name":"Hinsdale Flats Wildlife Management Area","cat":"Nature reserve","lat":42.40539,"lon":-73.11774},{"name":"Ozzie's","cat":"Restaurant","lat":42.43809,"lon":-73.12508}],"2500342460|North Monterey":[{"name":"Bidwell House Museum","cat":"Museum","lat":42.20843,"lon":-73.21837},{"name":"Horse Barn Exhibits","cat":"Museum","lat":42.20815,"lon":-73.21828},{"name":"Bidwell Park","cat":"Park","lat":42.17859,"lon":-73.21337},{"name":"Town Park","cat":"Park","lat":42.2449,"lon":-73.20389},{"name":"Fawyer Reserve, Berkshire Natural Resources Council (BNRC)","cat":"Nature reserve","lat":42.1702,"lon":-73.18876},{"name":"Swan-Dunlop Reserve, Berkshire Natural Resource Council (BNRC)","cat":"Nature reserve","lat":42.17948,"lon":-73.20823}],"2500345420|Southfield":[{"name":"Umpachene Falls Park","cat":"Park","lat":42.09436,"lon":-73.2718},{"name":"Donnelly Cr","cat":"Nature reserve","lat":42.06945,"lon":-73.2883},{"name":"Old Inn On The Green Cr","cat":"Nature reserve","lat":42.12385,"lon":-73.22819},{"name":"The Southfield Store","cat":"Cafe","lat":42.10069,"lon":-73.23378}],"2500359665|North Sandisfield":[{"name":"County Beach","cat":"Beach","lat":42.18318,"lon":-73.05054},{"name":"Farmington River Wildlife Management Area","cat":"Nature reserve","lat":42.22958,"lon":-73.11152},{"name":"Bob's Way","cat":"Nature reserve","lat":42.17567,"lon":-73.16233},{"name":"Paige's","cat":"Restaurant","lat":42.18987,"lon":-73.0903},{"name":"Grouse House","cat":"Restaurant","lat":42.19675,"lon":-73.10021}],"2500377990|West Stockbridge Center":[{"name":"The Foundry","cat":"Theater","lat":42.33335,"lon":-73.36792},{"name":"Village School Playground","cat":"Park","lat":42.33576,"lon":-73.37516},{"name":"Maple Hill Wildlife Management Area","cat":"Nature reserve","lat":42.32113,"lon":-73.38444},{"name":"Seitz Reserve, Berkshire Natural Resource Council (BNRC)","cat":"Nature reserve","lat":42.27061,"lon":-73.3687},{"name":"TurnPark Art Space","cat":"Arts center","lat":42.33268,"lon":-73.36969},{"name":"No. Six Depot Cafe","cat":"Cafe","lat":42.33411,"lon":-73.36848}],"2500321360|South Egremont":[{"name":"Town Park","cat":"Park","lat":42.16128,"lon":-73.41516},{"name":"Botham Park","cat":"Park","lat":42.23624,"lon":-73.41337},{"name":"Hardy Parcel","cat":"Nature reserve","lat":42.24795,"lon":-73.41039},{"name":"Egremont Wildlife Refuge","cat":"Nature reserve","lat":42.21501,"lon":-73.44153},{"name":"Bash Bish Falls Viewpoint","cat":"Scenic view","lat":42.11581,"lon":-73.49404},{"name":"view east","cat":"Scenic view","lat":42.27514,"lon":-73.43028}],"2500328180|South Hancock":[{"name":"Hancock Shaker Village","cat":"Museum","lat":42.42824,"lon":-73.33823},{"name":"Stevens Glen BNRC","cat":"Nature reserve","lat":42.35344,"lon":-73.35097},{"name":"Pittsfield State Forest","cat":"Nature reserve","lat":42.43915,"lon":-73.33849},{"name":"Observation Platform","cat":"Scenic view","lat":42.35385,"lon":-73.34766},{"name":"view east","cat":"Scenic view","lat":42.4688,"lon":-73.33855},{"name":"Bimi's","cat":"Cafe","lat":42.43051,"lon":-73.33922}],"2500353960|Yankee Orchards":[{"name":"Wandering Star Brewing","cat":"Brewery","lat":42.4569,"lon":-73.2115},{"name":"Brattle Brook Park","cat":"Park","lat":42.44239,"lon":-73.22276},{"name":"Deming Park","cat":"Park","lat":42.44544,"lon":-73.23453},{"name":"Western District HQ","cat":"Nature reserve","lat":42.46278,"lon":-73.18881},{"name":"Starbucks","cat":"Cafe","lat":42.46865,"lon":-73.19691},{"name":"Shelley's Kitchen","cat":"Restaurant","lat":42.44445,"lon":-73.24072}],"2500346225|Braytonville":[{"name":"Mohawk Theater","cat":"Theater","lat":42.69896,"lon":-73.11047},{"name":"Colgrove Park","cat":"Park","lat":42.69955,"lon":-73.10862},{"name":"Freeman Park","cat":"Park","lat":42.7055,"lon":-73.10762},{"name":"North Adams Veterans Memorial","cat":"Historic site","lat":42.70026,"lon":-73.10916},{"name":"MCLA Gallery 51","cat":"Gallery","lat":42.69936,"lon":-73.1127},{"name":"Gary Lichetenstein Editions","cat":"Gallery","lat":42.70106,"lon":-73.11462}],"2500520100|North Easton":[{"name":"Children's Museum Easton","cat":"Museum","lat":42.06688,"lon":-71.10251},{"name":"Shovel Town Brewery","cat":"Brewery","lat":42.07148,"lon":-71.10324},{"name":"Sheep Pasture","cat":"Park","lat":42.0665,"lon":-71.0876},{"name":"Frothingham Memorial Park","cat":"Park","lat":42.06251,"lon":-71.1049},{"name":"Sheep Pasture","cat":"Nature reserve","lat":42.06192,"lon":-71.09335},{"name":"Old Baldwin Street Dump","cat":"Nature reserve","lat":42.05664,"lon":-71.0981}],"2500520100|Gowards Corner":[{"name":"Eastondale Playground","cat":"Park","lat":42.03596,"lon":-71.06931},{"name":"Hockomock Swamp Wildlife Management Area","cat":"Nature reserve","lat":41.99768,"lon":-71.09268},{"name":"Black Brook Conservation Land","cat":"Nature reserve","lat":42.0278,"lon":-71.0999},{"name":"Hayashi Japanese Restaurant","cat":"Restaurant","lat":42.01231,"lon":-71.06733},{"name":"Anna's Pizza","cat":"Restaurant","lat":42.04557,"lon":-71.07917}],"2500520100|West Easton":[{"name":"Blackbrook Nature Reserve","cat":"Park","lat":42.02936,"lon":-71.11572},{"name":"New Pond Dam","cat":"Park","lat":42.02393,"lon":-71.13855},{"name":"Metacomet Conservation Area","cat":"Nature reserve","lat":42.04064,"lon":-71.11017},{"name":"Beaver Brook Woods","cat":"Nature reserve","lat":42.03907,"lon":-71.13335},{"name":"Civil War Monument","cat":"Historic site","lat":42.03595,"lon":-71.09828},{"name":"Ames Mansion","cat":"Historic site","lat":42.05997,"lon":-71.16397}],"2500520100|Southwest Easton":[{"name":"Wheaton Farm Walking Trails","cat":"Park","lat":42.00573,"lon":-71.12067},{"name":"Blackbrook Nature Reserve","cat":"Park","lat":42.02867,"lon":-71.11488},{"name":"Water Department Land","cat":"Nature reserve","lat":42.00465,"lon":-71.15259},{"name":"Hockomock Swamp Wildlife Management Area","cat":"Nature reserve","lat":42.01408,"lon":-71.10466},{"name":"The Old Bay Road","cat":"Historic site","lat":42.00474,"lon":-71.12063},{"name":"La Familia","cat":"Restaurant","lat":42.0235,"lon":-71.12517}],"2500538225|North Mansfield":[{"name":"Lowney Common","cat":"Park","lat":42.03223,"lon":-71.21933},{"name":"Harry B. Chase Jr. Place","cat":"Park","lat":42.02781,"lon":-71.21676},{"name":"Kingman Pond","cat":"Nature reserve","lat":42.02187,"lon":-71.21842},{"name":"Fulton Pond","cat":"Nature reserve","lat":42.02633,"lon":-71.22009},{"name":"Robsinson Park","cat":"Historic site","lat":42.02513,"lon":-71.21837},{"name":"Mansfield's Great Duck Race Fountain","cat":"Historic site","lat":42.02472,"lon":-71.21915}],"2500538225|Purdy Corner":[{"name":"Taylor Hill Conservation Woods & Trails","cat":"Park","lat":42.0058,"lon":-71.22102},{"name":"Zecher Lot","cat":"Nature reserve","lat":41.99048,"lon":-71.25088},{"name":"Taylor's Hill Conservation Area","cat":"Nature reserve","lat":42.0038,"lon":-71.2151},{"name":"Cobbler's Cornner","cat":"Historic site","lat":42.00911,"lon":-71.22128},{"name":"CAVA","cat":"Restaurant","lat":42.01348,"lon":-71.23031},{"name":"Bar Pizza & Salad Co","cat":"Restaurant","lat":42.01157,"lon":-71.22758}],"2500538225|East Mansfield":[{"name":"Cross Point Church Park","cat":"Park","lat":42.0137,"lon":-71.21161},{"name":"Taylor Hill Woods","cat":"Park","lat":42.00959,"lon":-71.21952},{"name":"Flint Parcel","cat":"Nature reserve","lat":42.0109,"lon":-71.17674},{"name":"Canoe River Greenbelt","cat":"Nature reserve","lat":42.01601,"lon":-71.17501},{"name":"World War II Veterans Memorial","cat":"Historic site","lat":42.02488,"lon":-71.21422},{"name":"Caf\u00e9 on the Common","cat":"Cafe","lat":42.02417,"lon":-71.21587}],"2500538225|Whiteville":[{"name":"Mansfield Memorial Park","cat":"Park","lat":42.03234,"lon":-71.20806},{"name":"Maple Park Conservation Area","cat":"Nature reserve","lat":42.04743,"lon":-71.19452},{"name":"Maple Park Conservation Area","cat":"Nature reserve","lat":42.04133,"lon":-71.19747}],"2500549970|Northeast Norton":[{"name":"Toad Island Park","cat":"Park","lat":41.97137,"lon":-71.12393},{"name":"Leonard St.","cat":"Nature reserve","lat":41.98543,"lon":-71.15436},{"name":"Canoe River Access","cat":"Nature reserve","lat":41.98868,"lon":-71.16603},{"name":"Chateau","cat":"Restaurant","lat":41.97334,"lon":-71.12739},{"name":"Chateau","cat":"Restaurant","lat":41.97328,"lon":-71.12735},{"name":"Old Shed","cat":"Attraction","lat":41.98703,"lon":-71.12411}],"2500549970|Copper Works":[{"name":"Watson Theatre","cat":"Theater","lat":41.96814,"lon":-71.18451},{"name":"Library Park","cat":"Park","lat":41.9702,"lon":-71.18184},{"name":"Norton Common","cat":"Park","lat":41.96723,"lon":-71.18792},{"name":"Hill St. Land","cat":"Nature reserve","lat":41.96159,"lon":-71.15377},{"name":"Pine St. Rear","cat":"Nature reserve","lat":41.96481,"lon":-71.16242},{"name":"Hood Cafe","cat":"Cafe","lat":41.96667,"lon":-71.18349}],"2500549970|Barrowsville":[{"name":"Everett Leonard Park","cat":"Park","lat":41.93369,"lon":-71.1935},{"name":"Everett Leonard Field","cat":"Park","lat":41.93466,"lon":-71.19671},{"name":"The Nelson Land","cat":"Nature reserve","lat":41.94512,"lon":-71.23524},{"name":"Wetherell's Island","cat":"Nature reserve","lat":41.94645,"lon":-71.23421},{"name":"Trailers","cat":"Attraction","lat":41.94913,"lon":-71.2388}],"2500549970|West Norton":[{"name":"Norton Tricentennial Park","cat":"Park","lat":41.95732,"lon":-71.21299},{"name":"Edith Read","cat":"Nature reserve","lat":41.96091,"lon":-71.23294},{"name":"Rose Farm","cat":"Nature reserve","lat":41.95525,"lon":-71.23108},{"name":"Mac and Walt's","cat":"Restaurant","lat":41.95156,"lon":-71.23497},{"name":"Path Continues","cat":"Attraction","lat":41.95425,"lon":-71.23803}],"2500556060|Tracy Corner":[{"name":"Hewitts Pond Preserve","cat":"Park","lat":41.94731,"lon":-71.04367},{"name":"Hewitts Pond Preserve","cat":"Park","lat":41.94709,"lon":-71.04132},{"name":"Pine Swamp","cat":"Nature reserve","lat":41.92879,"lon":-71.06901},{"name":"Pine Swamp","cat":"Nature reserve","lat":41.92903,"lon":-71.0776},{"name":"Veteran's Memorial","cat":"Historic site","lat":41.91868,"lon":-71.05705},{"name":"baja's","cat":"Restaurant","lat":41.95427,"lon":-71.06981}],"2500556060|Southeast Raynham":[{"name":"Borden Colony Recreation Area","cat":"Park","lat":41.91839,"lon":-71.06484},{"name":"Woodland Conservation","cat":"Nature reserve","lat":41.91006,"lon":-71.04421},{"name":"Dam Lot Brook Cons. Area","cat":"Nature reserve","lat":41.92019,"lon":-71.03859},{"name":"Anchor Monument","cat":"Historic site","lat":41.91399,"lon":-71.0612},{"name":"The Jockey Club","cat":"Restaurant","lat":41.90449,"lon":-71.06072},{"name":"Taco Bell","cat":"Restaurant","lat":41.90584,"lon":-71.04734}],"2500569170|Northwest Taunton":[{"name":"Watson Pond State Park","cat":"Park","lat":41.9501,"lon":-71.11421},{"name":"Erwin S. Wilder Wildlife Management Area","cat":"Nature reserve","lat":41.97104,"lon":-71.11555},{"name":"Home Plate","cat":"Restaurant","lat":41.93604,"lon":-71.11118},{"name":"Jaybo Cafe","cat":"Restaurant","lat":41.95884,"lon":-71.11999},{"name":"Brack's Grille & Tap","cat":"Bar","lat":41.95966,"lon":-71.11946}],"2500569170|West Taunton":[{"name":"Woodward Springs","cat":"Nature reserve","lat":41.93448,"lon":-71.15289},{"name":"Silver Fox Estates","cat":"Nature reserve","lat":41.90583,"lon":-71.18391}],"2500569170|Westville":[{"name":"Arthur Sharp Estate","cat":"Park","lat":41.89849,"lon":-71.14984},{"name":"Westville Conservation Area","cat":"Park","lat":41.88999,"lon":-71.13187},{"name":"La Familia Restaurant","cat":"Restaurant","lat":41.88473,"lon":-71.14282},{"name":"Papa Gino's","cat":"Restaurant","lat":41.8886,"lon":-71.12096}],"2500569170|Whittenton":[{"name":"Hopewell Park","cat":"Park","lat":41.91201,"lon":-71.09557},{"name":"Hong Kong City","cat":"Restaurant","lat":41.91551,"lon":-71.09245}],"2500569170|Central Taunton":[{"name":"Old Colony History Museum","cat":"Museum","lat":41.90124,"lon":-71.08706},{"name":"Church Green","cat":"Park","lat":41.90172,"lon":-71.08738},{"name":"Mill River Park","cat":"Park","lat":41.89998,"lon":-71.0901},{"name":"Fusion Kitchen","cat":"Restaurant","lat":41.90244,"lon":-71.0918},{"name":"El Mariachi","cat":"Restaurant","lat":41.90144,"lon":-71.09325}],"2500569170|Southwest Taunton":[{"name":"Weir Village Riverfront Park","cat":"Park","lat":41.88279,"lon":-71.09158},{"name":"Arthur Cleveland Bent Memorial Cabin","cat":"Historic site","lat":41.88028,"lon":-71.12866}],"2500569170|Weir Village":[{"name":"Memorial Park","cat":"Park","lat":41.89073,"lon":-71.09418},{"name":"Weir Field","cat":"Park","lat":41.8889,"lon":-71.09712}],"2500569170|Southeast Taunton":[{"name":"Weir Village Riverfront Park","cat":"Park","lat":41.88279,"lon":-71.09046},{"name":"Plonka Property","cat":"Nature reserve","lat":41.90179,"lon":-71.07918},{"name":"Emmie F. Hutt Forest","cat":"Nature reserve","lat":41.84984,"lon":-71.00782},{"name":"Sol De Mexico","cat":"Restaurant","lat":41.87605,"lon":-71.06107},{"name":"Freeplay Bar Arcade","cat":"Bar","lat":41.87842,"lon":-71.06238}],"2500516950|Central Dighton":[{"name":"Sweets Knoll State Park","cat":"Park","lat":41.83136,"lon":-71.11621},{"name":"Lane Field","cat":"Park","lat":41.81353,"lon":-71.11775},{"name":"Broad Cove Marsh","cat":"Nature reserve","lat":41.79783,"lon":-71.12816},{"name":"Town Forest","cat":"Nature reserve","lat":41.86281,"lon":-71.15411},{"name":"C & N Pizza","cat":"Restaurant","lat":41.8176,"lon":-71.12063},{"name":"Shaws Boat Yard","cat":"Marina","lat":41.81509,"lon":-71.11593}],"2500505280|Berkley":[{"name":"Dighton Rock State Park","cat":"Park","lat":41.81288,"lon":-71.10643},{"name":"Berkley Park","cat":"Park","lat":41.83427,"lon":-71.10686},{"name":"Bay View Cafe","cat":"Restaurant","lat":41.81181,"lon":-71.09797}],"2500525240|Buffington Corner":[{"name":"Freetown Common","cat":"Park","lat":41.79465,"lon":-71.06708},{"name":"KRR Complex","cat":"Park","lat":41.78003,"lon":-71.08951},{"name":"Kenswood Estate","cat":"Nature reserve","lat":41.80157,"lon":-71.02042},{"name":"Camp Tom Welch","cat":"Nature reserve","lat":41.8161,"lon":-71.07831},{"name":"Neon Marketplace 3","cat":"Restaurant","lat":41.76296,"lon":-71.09582}],"2500525240|Braleys":[{"name":"Cathedral Camp","cat":"Park","lat":41.77982,"lon":-70.93337},{"name":"Hilltop Park","cat":"Park","lat":41.77501,"lon":-70.95361},{"name":"NEFF Property","cat":"Nature reserve","lat":41.77837,"lon":-70.97463},{"name":"Bosworth Lot","cat":"Nature reserve","lat":41.77562,"lon":-70.97318},{"name":"Helicopter Memorial","cat":"Historic site","lat":41.76386,"lon":-71.01404},{"name":"PizzaExpress","cat":"Restaurant","lat":41.77128,"lon":-70.95489}],"2500546598|North North Attleborough":[{"name":"Whiting's Pond Beach","cat":"Beach","lat":41.99464,"lon":-71.33631},{"name":"Columbia Field","cat":"Park","lat":41.99589,"lon":-71.33274},{"name":"Coffee Connection","cat":"Cafe","lat":41.99472,"lon":-71.32925}],"2500546598|Attleboro Falls":[{"name":"Barrows Veterans Memorial Park","cat":"Park","lat":41.97937,"lon":-71.33329},{"name":"Wetland-South","cat":"Nature reserve","lat":41.98475,"lon":-71.32846}],"2500546598|Northeast North Attleborough":[{"name":"Falls Fire Barn Museum","cat":"Museum","lat":41.97118,"lon":-71.31391},{"name":"Mason Field","cat":"Park","lat":41.97355,"lon":-71.31537},{"name":"Simmons Park","cat":"Park","lat":41.97017,"lon":-71.31218},{"name":"North Attleborough Wildlife Management Area","cat":"Nature reserve","lat":42.00082,"lon":-71.29054},{"name":"Riley Conservation Area","cat":"Nature reserve","lat":41.99973,"lon":-71.30813},{"name":"Sunrise Hill Memorial Park","cat":"Historic site","lat":42.00044,"lon":-71.31303}],"2500546598|Southwest North Attleborough":[{"name":"Girl Scout Well Field","cat":"Park","lat":41.94119,"lon":-71.37268},{"name":"Adamsdale Well Field","cat":"Park","lat":41.9221,"lon":-71.37765},{"name":"Hirsch Property","cat":"Nature reserve","lat":41.92512,"lon":-71.37787}],"2500546598|Central North Attleborough":[{"name":"Barbara Road Beach","cat":"Beach","lat":41.96904,"lon":-71.32643},{"name":"Veterans Park","cat":"Park","lat":41.98101,"lon":-71.33335},{"name":"Chastenet Land","cat":"Nature reserve","lat":41.9738,"lon":-71.34796},{"name":"Chastenet Land","cat":"Nature reserve","lat":41.97371,"lon":-71.34542},{"name":"World War Memorial Cairn","cat":"Historic site","lat":41.98098,"lon":-71.33343},{"name":"Ninety Nine Restaurant & Pub","cat":"Restaurant","lat":41.93172,"lon":-71.35205}],"2500502690|South Attleboro":[{"name":"Conley Park","cat":"Park","lat":41.92458,"lon":-71.35097},{"name":"South Attleboro Park","cat":"Park","lat":41.90688,"lon":-71.3679},{"name":"Honor Roll","cat":"Historic site","lat":41.91996,"lon":-71.35747},{"name":"South Attleborough Firehouse","cat":"Historic site","lat":41.92313,"lon":-71.35249},{"name":"Starbucks","cat":"Cafe","lat":41.92367,"lon":-71.35608},{"name":"Starbucks","cat":"Cafe","lat":41.90085,"lon":-71.35326}],"2500502690|Attleborough City":[{"name":"Capron Park","cat":"Park","lat":41.93759,"lon":-71.29703},{"name":"Highland Park","cat":"Park","lat":41.94403,"lon":-71.29864},{"name":"Manchester Reservoir","cat":"Nature reserve","lat":41.94073,"lon":-71.32734},{"name":"LeahSpace","cat":"Nature reserve","lat":41.90757,"lon":-71.32617},{"name":"Frank R. Sweet Memorial Forest Memorial","cat":"Historic site","lat":41.93837,"lon":-71.29896},{"name":"Spanish War Veterans Memorial","cat":"Historic site","lat":41.93839,"lon":-71.29492}],"2500502690|North Attleboro":[{"name":"Bungay Park","cat":"Park","lat":41.95217,"lon":-71.28226},{"name":"Hayward Field","cat":"Park","lat":41.95813,"lon":-71.29461},{"name":"Bungay River Conservation Area","cat":"Nature reserve","lat":41.95924,"lon":-71.27769},{"name":"The Old Shuttle Shop","cat":"Historic site","lat":41.95006,"lon":-71.29118},{"name":"Colonel Blackinton Inn","cat":"Historic site","lat":41.95042,"lon":-71.28984}],"2500502690|Downtown":[{"name":"Attleboro Arts Museum","cat":"Museum","lat":41.94438,"lon":-71.28043},{"name":"Attleboro Area Industrial Museum","cat":"Museum","lat":41.94307,"lon":-71.28184},{"name":"Triboro Youth Theatre","cat":"Theater","lat":41.94258,"lon":-71.28219},{"name":"Union Theatre","cat":"Theater","lat":41.94218,"lon":-71.28243},{"name":"Lloyd G. Balfour Riverwalk","cat":"Park","lat":41.94466,"lon":-71.28594},{"name":"Charles O. Fiske Square","cat":"Park","lat":41.94418,"lon":-71.28438}],"2500502690|County Square":[{"name":"Judith H. Robbins Riverfront Park","cat":"Park","lat":41.93963,"lon":-71.28826},{"name":"Wolfenden & Sons Mill","cat":"Historic site","lat":41.93848,"lon":-71.28977},{"name":"Former Attleborough High School","cat":"Historic site","lat":41.9407,"lon":-71.29055},{"name":"Honey Dew","cat":"Cafe","lat":41.93396,"lon":-71.29955},{"name":"Bilenitta Cafe","cat":"Cafe","lat":41.93249,"lon":-71.29607},{"name":"D&W Pizza","cat":"Restaurant","lat":41.93404,"lon":-71.29945}],"2500502690|East Attleboro":[{"name":"Horton Field","cat":"Park","lat":41.95194,"lon":-71.27622},{"name":"Finberg Park","cat":"Park","lat":41.9373,"lon":-71.26296},{"name":"Chartley Brook","cat":"Nature reserve","lat":41.92864,"lon":-71.23663},{"name":"Bishop Farms","cat":"Nature reserve","lat":41.94077,"lon":-71.25608},{"name":"Bliss Bros Dairy","cat":"Restaurant","lat":41.93725,"lon":-71.266},{"name":"The Glen","cat":"Attraction","lat":41.92164,"lon":-71.23564}],"2500502690|Dodgeville":[{"name":"Tilda B. Stone Park","cat":"Park","lat":41.91523,"lon":-71.30395},{"name":"Hebronville Park","cat":"Park","lat":41.90517,"lon":-71.31653},{"name":"Oak Hill","cat":"Nature reserve","lat":41.9151,"lon":-71.27966},{"name":"Attleboro Springs Wildlife Sanctuary","cat":"Nature reserve","lat":41.92961,"lon":-71.26624},{"name":"Plante-Quintairo Memorial","cat":"Historic site","lat":41.90166,"lon":-71.32116},{"name":"First Minister's House","cat":"Historic site","lat":41.92607,"lon":-71.28728}],"2500560645|North Seekonk":[{"name":"Caratunk Wildlife Refuge","cat":"Nature reserve","lat":41.87421,"lon":-71.31176},{"name":"Seekonk Sanctuary","cat":"Nature reserve","lat":41.84809,"lon":-71.34016},{"name":"Observation Structure","cat":"Scenic view","lat":41.87697,"lon":-71.31457}],"2500560645|Harris":[{"name":"Cushing Conservation Area","cat":"Nature reserve","lat":41.82646,"lon":-71.32178},{"name":"Conservation Commission","cat":"Nature reserve","lat":41.82999,"lon":-71.32731},{"name":"Outback Steakhouse","cat":"Restaurant","lat":41.78992,"lon":-71.32197},{"name":"Country Kitchen","cat":"Restaurant","lat":41.82688,"lon":-71.32643}],"2500556375|Perryville":[{"name":"Rehoboth Veterans Memorial","cat":"Park","lat":41.84346,"lon":-71.26175},{"name":"Fox Lea","cat":"Nature reserve","lat":41.84123,"lon":-71.27278},{"name":"Winthrop Street Conservation Area","cat":"Nature reserve","lat":41.84691,"lon":-71.25659},{"name":"Hillside Tavern","cat":"Restaurant","lat":41.85227,"lon":-71.2778},{"name":"Tiki at the Tavern","cat":"Bar","lat":41.85176,"lon":-71.27761}],"2500556375|South Rehoboth":[{"name":"Carpenter Museum","cat":"Museum","lat":41.84014,"lon":-71.25196},{"name":"Palmer River Conservation Area","cat":"Nature reserve","lat":41.83773,"lon":-71.27136},{"name":"Rotundo Sanctuary","cat":"Nature reserve","lat":41.77548,"lon":-71.28483}],"2500523000|Southwest Fall River":[{"name":"Pulaski Park","cat":"Park","lat":41.68831,"lon":-71.15166},{"name":"Maplewood Park","cat":"Park","lat":41.68091,"lon":-71.15483},{"name":"Starbucks","cat":"Cafe","lat":41.67166,"lon":-71.16025},{"name":"Papa Gino's","cat":"Restaurant","lat":41.67332,"lon":-71.16291},{"name":"Denny's","cat":"Restaurant","lat":41.67377,"lon":-71.16199}],"2500523000|Globe Village":[{"name":"Father Kelly Park","cat":"Park","lat":41.68682,"lon":-71.17002},{"name":"Chew Playground","cat":"Park","lat":41.68538,"lon":-71.16977}],"2500523000|Flint Village":[{"name":"QRT Rodman Street connector","cat":"Park","lat":41.6939,"lon":-71.14871},{"name":"Quequechan Rail Trail","cat":"Park","lat":41.68532,"lon":-71.13805},{"name":"Honey Dew","cat":"Cafe","lat":41.69748,"lon":-71.14789},{"name":"Applebee's","cat":"Restaurant","lat":41.69639,"lon":-71.15149},{"name":"Lee Garden","cat":"Restaurant","lat":41.69411,"lon":-71.1394}],"2500523000|West Fall River":[{"name":"Griffin Playground","cat":"Park","lat":41.6947,"lon":-71.15682},{"name":"Kennedy Park","cat":"Park","lat":41.69576,"lon":-71.17205},{"name":"Ice Cream Stand","cat":"Restaurant","lat":41.69461,"lon":-71.16354},{"name":"Caravela Family Restaurant","cat":"Restaurant","lat":41.69553,"lon":-71.16356}],"2500523000|Fall River Station":[{"name":"Children\u2019s Museum of Greater Fall River","cat":"Museum","lat":41.70803,"lon":-71.1539},{"name":"Gates of the City","cat":"Park","lat":41.70187,"lon":-71.16398},{"name":"Turner Playground","cat":"Park","lat":41.70683,"lon":-71.15795},{"name":"Portas Da Cidade","cat":"Historic site","lat":41.70198,"lon":-71.16441},{"name":"Narrows Center for the Arts","cat":"Gallery","lat":41.70307,"lon":-71.16285},{"name":"Brian Fox Studios","cat":"Gallery","lat":41.71848,"lon":-71.15531}],"2500523000|Oak Grove Village":[{"name":"Watuppa Reservation","cat":"Park","lat":41.69822,"lon":-71.12125}],"2500523000|Steep Brook":[],"2500523000|Bowenville":[{"name":"North Park","cat":"Park","lat":41.71633,"lon":-71.14609}],"2500523000|Central Fall River":[{"name":"Camp Interlocken","cat":"Park","lat":41.72566,"lon":-71.04143},{"name":"Copicut Woods Parking","cat":"Park","lat":41.70887,"lon":-71.06502},{"name":"Papa Gino's","cat":"Restaurant","lat":41.7134,"lon":-71.12782},{"name":"New York Bagel Co.","cat":"Restaurant","lat":41.7125,"lon":-71.12841}],"2500562430|Pottersville":[{"name":"Buffington Park","cat":"Park","lat":41.75205,"lon":-71.14866},{"name":"Buffington Park","cat":"Park","lat":41.7506,"lon":-71.14866},{"name":"Blackledge","cat":"Nature reserve","lat":41.74266,"lon":-71.14322},{"name":"Chace Preserve","cat":"Nature reserve","lat":41.74279,"lon":-71.14404},{"name":"Somerset Marina","cat":"Marina","lat":41.76185,"lon":-71.13391}],"2500562430|Northeast Somerset":[{"name":"Pierce Beach","cat":"Beach","lat":41.76467,"lon":-71.1332},{"name":"Village Waterfront Park","cat":"Park","lat":41.76955,"lon":-71.1248},{"name":"Conservation Land","cat":"Nature reserve","lat":41.76737,"lon":-71.12673},{"name":"Conservation Land","cat":"Nature reserve","lat":41.76653,"lon":-71.12692},{"name":"Agoro's","cat":"Restaurant","lat":41.76966,"lon":-71.13786},{"name":"China Lake Restaurant","cat":"Restaurant","lat":41.76908,"lon":-71.1379}],"2500562430|Brayton Point":[{"name":"Brayton Point Beach","cat":"Beach","lat":41.71167,"lon":-71.18472},{"name":"Angus Street Right of Way","cat":"Park","lat":41.7103,"lon":-71.18172},{"name":"Brayton Point Salt Marsh","cat":"Nature reserve","lat":41.71297,"lon":-71.18601},{"name":"Chili's","cat":"Restaurant","lat":41.73102,"lon":-71.17089},{"name":"Yamato Asian Bistro","cat":"Restaurant","lat":41.73378,"lon":-71.17571}],"2500568750|South Swansea":[{"name":"Swansea Town Beach","cat":"Beach","lat":41.72564,"lon":-71.21957},{"name":"Off Long Point Property","cat":"Nature reserve","lat":41.72778,"lon":-71.22003}],"2500568750|East Swansea":[{"name":"Village Park","cat":"Park","lat":41.75284,"lon":-71.18769},{"name":"Un-Named","cat":"Nature reserve","lat":41.73634,"lon":-71.19235},{"name":"Hailes Hill","cat":"Nature reserve","lat":41.76451,"lon":-71.18229},{"name":"wildcat rock","cat":"Scenic view","lat":41.75797,"lon":-71.18596}],"2500568750|West Swansea":[{"name":"Martin House and Farm","cat":"Museum","lat":41.76535,"lon":-71.26014},{"name":"Barneyville Rd Property","cat":"Nature reserve","lat":41.76457,"lon":-71.29011},{"name":"Off Mt Fair Property","cat":"Nature reserve","lat":41.74291,"lon":-71.24686},{"name":"Friendly's","cat":"Restaurant","lat":41.7488,"lon":-71.21299},{"name":"Bucko\u2019s Pizzeria","cat":"Restaurant","lat":41.76976,"lon":-71.26615}],"2500577570|North Westport":[{"name":"Edgemore Park","cat":"Park","lat":41.6459,"lon":-71.06451},{"name":"Morency & Thomas Parcel","cat":"Nature reserve","lat":41.65373,"lon":-71.11307},{"name":"Rose Ave/Nancy Blvd Parcel","cat":"Nature reserve","lat":41.63808,"lon":-71.05034},{"name":"Dunkin'","cat":"Cafe","lat":41.67491,"lon":-71.10832}],"2500577570|Kirby Corner":[{"name":"Camp Noquochoke","cat":"Park","lat":41.59566,"lon":-71.06199},{"name":"Head Of Westport Landing","cat":"Park","lat":41.62075,"lon":-71.06027},{"name":"Sisson Farm Lane Parcel","cat":"Nature reserve","lat":41.61573,"lon":-71.06448},{"name":"Town Forest","cat":"Nature reserve","lat":41.57309,"lon":-71.08785},{"name":"9/11 Memorial","cat":"Historic site","lat":41.57086,"lon":-71.08682},{"name":"Dedee Shattuck Gallery","cat":"Gallery","lat":41.57681,"lon":-71.09207}],"2500577570|South Westport":[{"name":"East Horseneck Beach","cat":"Beach","lat":41.50149,"lon":-71.03282},{"name":"Horseneck Beach","cat":"Beach","lat":41.51122,"lon":-71.08282},{"name":"Horeseneck Point Lifesaving Station","cat":"Museum","lat":41.49672,"lon":-71.03871},{"name":"Buzzard's Bay Brewery","cat":"Brewery","lat":41.56779,"lon":-71.0501},{"name":"Horseneck Beach State Reservation","cat":"Park","lat":41.50788,"lon":-71.04865},{"name":"Rodgers Property","cat":"Nature reserve","lat":41.50291,"lon":-71.10628}],"2500545000|Pine Hill Acres":[{"name":"Pulaski Park","cat":"Park","lat":41.72949,"lon":-70.94392},{"name":"Pine Hill Park","cat":"Park","lat":41.71041,"lon":-70.94517},{"name":"New Bedford Cr4","cat":"Nature reserve","lat":41.73048,"lon":-70.95949},{"name":"Honey Dew","cat":"Cafe","lat":41.69641,"lon":-70.93408},{"name":"Cafe Roma","cat":"Restaurant","lat":41.71059,"lon":-70.93326},{"name":"G&S Pizza","cat":"Restaurant","lat":41.69731,"lon":-70.93401}],"2500545000|Plainville":[{"name":"Flora Pierce Nature T","cat":"Nature reserve","lat":41.67471,"lon":-70.9726},{"name":"New Bedford Cr4","cat":"Nature reserve","lat":41.72225,"lon":-70.96558},{"name":"Honey Dew","cat":"Cafe","lat":41.68063,"lon":-70.93918}],"2500545000|Central New Bedford":[{"name":"Brooklawn Park","cat":"Park","lat":41.67504,"lon":-70.92809},{"name":"Edward James Park","cat":"Park","lat":41.66379,"lon":-70.94168},{"name":"Elizabeth's","cat":"Restaurant","lat":41.66148,"lon":-70.92794},{"name":"Antonio's Restaurant","cat":"Restaurant","lat":41.65611,"lon":-70.92551}],"2500545000|Northeast New Bedford":[{"name":"Rivers End Park","cat":"Park","lat":41.68066,"lon":-70.91806}],"2500545000|Mount Pleasant":[{"name":"Dias Field","cat":"Park","lat":41.66094,"lon":-70.94044}],"2500545000|Rockdale":[{"name":"Riccardi's Restaurant","cat":"Restaurant","lat":41.64909,"lon":-70.96868}],"2500545000|Westview Park":[{"name":"Buttonwood Park","cat":"Park","lat":41.63122,"lon":-70.95143},{"name":"Buttonwood Park","cat":"Park","lat":41.63194,"lon":-70.95229},{"name":"Sun Dial","cat":"Historic site","lat":41.63963,"lon":-70.94974},{"name":"China Star","cat":"Restaurant","lat":41.63594,"lon":-70.95145}],"2500545000|South New Bedford":[{"name":"New Bedford Fire Museum","cat":"Museum","lat":41.62824,"lon":-70.9268},{"name":"Magnat Park","cat":"Park","lat":41.63535,"lon":-70.9352},{"name":"Andrews-Dahill Park","cat":"Park","lat":41.62521,"lon":-70.92562},{"name":"Palace Pizza","cat":"Restaurant","lat":41.62707,"lon":-70.92763},{"name":"Metro Pizza","cat":"Restaurant","lat":41.62585,"lon":-70.93022},{"name":"The Bar","cat":"Bar","lat":41.6205,"lon":-70.93492}],"2500545000|Southeast New Bedford":[{"name":"Medeiros Beach","cat":"Beach","lat":41.60339,"lon":-70.90251},{"name":"Noname Beach","cat":"Beach","lat":41.60269,"lon":-70.91414},{"name":"New Bedford Art Museum","cat":"Museum","lat":41.63512,"lon":-70.92673},{"name":"New Bedford Fishing Heritage Center","cat":"Museum","lat":41.63618,"lon":-70.92354},{"name":"Marine Park","cat":"Park","lat":41.6403,"lon":-70.91347},{"name":"Rasmus Tonnessen Park","cat":"Park","lat":41.63538,"lon":-70.92103}],"2500516425|Kempton Croft":[{"name":"Dartmouth Park","cat":"Park","lat":41.63552,"lon":-71.0116},{"name":"Lincoln Park Greenspace","cat":"Park","lat":41.63546,"lon":-71.04322},{"name":"Carrolton Heights","cat":"Nature reserve","lat":41.63533,"lon":-70.97302},{"name":"Carrolton Heights","cat":"Nature reserve","lat":41.63584,"lon":-70.97289},{"name":"Mirasol's Cafe","cat":"Cafe","lat":41.64009,"lon":-70.99998},{"name":"Starbucks","cat":"Cafe","lat":41.63705,"lon":-71.00301}],"2500516425|Northwest Dartmouth":[{"name":"Main Auditorium","cat":"Theater","lat":41.62915,"lon":-71.00473},{"name":"Howland Reserve","cat":"Park","lat":41.68423,"lon":-71.0322},{"name":"Ridge Hill Reserve","cat":"Park","lat":41.69437,"lon":-71.02186},{"name":"Wernick Farm Reserve","cat":"Nature reserve","lat":41.69008,"lon":-71.04755},{"name":"Acushnet Cedar Swamp State Res","cat":"Nature reserve","lat":41.70841,"lon":-70.97826},{"name":"Library Caf\u00e9","cat":"Cafe","lat":41.62945,"lon":-71.0071}],"2500516425|Bliss Corner":[{"name":"Dodge Reserve","cat":"Nature reserve","lat":41.60721,"lon":-70.95278},{"name":"Garden Acres","cat":"Nature reserve","lat":41.60724,"lon":-70.94657},{"name":"Lolly's Cafe","cat":"Cafe","lat":41.60923,"lon":-70.93945},{"name":"Friendly Pizza","cat":"Restaurant","lat":41.60494,"lon":-70.9573},{"name":"PieZoni's Pizza","cat":"Restaurant","lat":41.6138,"lon":-70.93752}],"2500516425|Macomber Corner":[{"name":"Paskamansett Woods","cat":"Park","lat":41.63174,"lon":-70.99102},{"name":"Crapo Field","cat":"Park","lat":41.60614,"lon":-70.95882},{"name":"Dartmouth Greens Parcels D&E","cat":"Nature reserve","lat":41.61546,"lon":-70.98697},{"name":"Indian Cliff Estate","cat":"Nature reserve","lat":41.6002,"lon":-70.99475}],"2500516425|Wilburite Corner":[{"name":"Jones Park","cat":"Park","lat":41.60498,"lon":-70.9316},{"name":"Apponagansett Point Recreation Area","cat":"Park","lat":41.58405,"lon":-70.95473},{"name":"Star Of The Sea Reserve","cat":"Nature reserve","lat":41.59665,"lon":-70.96673},{"name":"Podanaram Harbor Shores","cat":"Nature reserve","lat":41.59144,"lon":-70.96664},{"name":"Seagrass Studio","cat":"Gallery","lat":41.58667,"lon":-70.94521},{"name":"Dartmouth Cultural Center","cat":"Arts center","lat":41.58888,"lon":-70.94608}],"2500516425|Cranberry Bog Corner":[{"name":"Little Beach","cat":"Beach","lat":41.512,"lon":-71.00774},{"name":"Round Hill Beach","cat":"Beach","lat":41.5405,"lon":-70.93588},{"name":"Doll Museum","cat":"Museum","lat":41.57538,"lon":-71.0031},{"name":"Mothas Park","cat":"Park","lat":41.5863,"lon":-70.98811},{"name":"Ocean View Farm Reserve","cat":"Nature reserve","lat":41.53225,"lon":-71.00607},{"name":"Wellington Farm Reserve","cat":"Nature reserve","lat":41.55405,"lon":-70.9417}],"2500500520|Central Acushnet":[{"name":"Lantern Ln/Davis Park","cat":"Park","lat":41.74433,"lon":-70.8907},{"name":"Pope Park","cat":"Park","lat":41.68945,"lon":-70.89985},{"name":"Keith\"S Tree Farm","cat":"Nature reserve","lat":41.70712,"lon":-70.9013},{"name":"Wheldon Woods","cat":"Nature reserve","lat":41.70625,"lon":-70.91132},{"name":"Acushnet Veterans Memorial","cat":"Historic site","lat":41.69007,"lon":-70.90405},{"name":"The Country Whip","cat":"Restaurant","lat":41.73676,"lon":-70.89569}],"2500500520|Coury Heights":[{"name":"Acushnet Sawmill","cat":"Park","lat":41.68378,"lon":-70.9196},{"name":"Con Comm Land Near Acushnet River","cat":"Nature reserve","lat":41.66719,"lon":-70.90883},{"name":"Con Comm Land Near Acushnet River","cat":"Nature reserve","lat":41.66612,"lon":-70.91471}],"2500522130|East Fairhaven":[{"name":"South Shore Marshes Wildlife Management Area","cat":"Park","lat":41.62872,"lon":-70.85587},{"name":"Camp Echo","cat":"Park","lat":41.6351,"lon":-70.86781},{"name":"South Shore Salt Marsh Wildlife Management Area","cat":"Nature reserve","lat":41.63228,"lon":-70.85409},{"name":"Knollmere Beach","cat":"Nature reserve","lat":41.63516,"lon":-70.85822}],"2500522130|Oxford":[{"name":"Livesey Park","cat":"Park","lat":41.65756,"lon":-70.90621},{"name":"Livesey Park","cat":"Park","lat":41.65785,"lon":-70.90637},{"name":"Sycamore St Marshland","cat":"Nature reserve","lat":41.6622,"lon":-70.91449},{"name":"Sycamore St Marshland","cat":"Nature reserve","lat":41.6617,"lon":-70.91271},{"name":"Galaxy Pizza","cat":"Restaurant","lat":41.65653,"lon":-70.90876}],"2500522130|Harbor View":[{"name":"Rogers School","cat":"Park","lat":41.63495,"lon":-70.89881},{"name":"Cushman Park","cat":"Park","lat":41.63999,"lon":-70.9039},{"name":"The Nook","cat":"Cafe","lat":41.63767,"lon":-70.90119},{"name":"Mirasols Cafe","cat":"Cafe","lat":41.64314,"lon":-70.89089},{"name":"Margaret's Resturant","cat":"Restaurant","lat":41.63399,"lon":-70.90473},{"name":"Elizabeth's","cat":"Restaurant","lat":41.63395,"lon":-70.90502}],"2500522130|Silver Shell Beach":[{"name":"Fort Phoenix Beach State Reservation","cat":"Park","lat":41.62427,"lon":-70.89893},{"name":"Fort Phoenix","cat":"Park","lat":41.62429,"lon":-70.9021},{"name":"Fort Phoenix Beach State Reservation","cat":"Nature reserve","lat":41.62507,"lon":-70.89822},{"name":"Doane Street Woods","cat":"Nature reserve","lat":41.62609,"lon":-70.89524},{"name":"Fort Phoenix","cat":"Historic site","lat":41.62428,"lon":-70.90226},{"name":"Money Tree Kitchen","cat":"Restaurant","lat":41.63298,"lon":-70.87603}],"2500516425|Southeast Dartmouth":[],"2500769940|Vineyard Haven":[{"name":"Owen Park Beach","cat":"Beach","lat":41.45928,"lon":-70.60003},{"name":"Tisbury Town Beach","cat":"Beach","lat":41.46289,"lon":-70.59947},{"name":"Old Schoolhouse Museum and Liberty Pole","cat":"Museum","lat":41.4565,"lon":-70.60336},{"name":"Martha's Vineyard Museum","cat":"Museum","lat":41.44922,"lon":-70.59977},{"name":"Katherine Cornell Theater","cat":"Theater","lat":41.45417,"lon":-70.60501},{"name":"Martha's Vineyard Playhouse","cat":"Theater","lat":41.45547,"lon":-70.60389}],"2500750390|Lagoon Heights":[{"name":"Town Beach","cat":"Beach","lat":41.45927,"lon":-70.55654},{"name":"Seaview Beach","cat":"Beach","lat":41.45531,"lon":-70.55433},{"name":"Cottage Museum","cat":"Museum","lat":41.45501,"lon":-70.5616},{"name":"Mariposa Museum","cat":"Museum","lat":41.45474,"lon":-70.55897},{"name":"Offshore Ale Co.","cat":"Brewery","lat":41.45613,"lon":-70.55729},{"name":"Penacook Park","cat":"Park","lat":41.4528,"lon":-70.55817}],"2500721150|West Edgartown":[{"name":"Chappaquiddick Beach","cat":"Beach","lat":41.38456,"lon":-70.49947},{"name":"Edgartown Beach","cat":"Beach","lat":41.40845,"lon":-70.53697},{"name":"Vincent House Museum","cat":"Museum","lat":41.39117,"lon":-70.51532},{"name":"Doctor Daniel Fisher House Museum","cat":"Museum","lat":41.39078,"lon":-70.51583},{"name":"Bad Martha Farmer's Brewery","cat":"Brewery","lat":41.3942,"lon":-70.52738},{"name":"Cannonball Park","cat":"Park","lat":41.39136,"lon":-70.52082}],"2500778235|North West Tisbury":[{"name":"Crescent Beach","cat":"Beach","lat":41.46955,"lon":-70.79253},{"name":"Long Beach","cat":"Beach","lat":41.31613,"lon":-70.80231},{"name":"Aquinnah Wampanoag History Museum","cat":"Museum","lat":41.34609,"lon":-70.8355},{"name":"Cuttyhunk Historical Society Museum","cat":"Museum","lat":41.42096,"lon":-70.9292},{"name":"Aquinnah Circle Park","cat":"Park","lat":41.34711,"lon":-70.83497},{"name":"Aquinnah Headlands Preserve \u2013 South Head","cat":"Nature reserve","lat":41.34491,"lon":-70.83465}],"2500726325|Northeast Gosnold":[],"2500943580|Little Nahant":[{"name":"Black Rock Beach","cat":"Beach","lat":42.42649,"lon":-70.9356},{"name":"Stony Beach","cat":"Beach","lat":42.42776,"lon":-70.91622},{"name":"Lowlands Park","cat":"Park","lat":42.42863,"lon":-70.93221},{"name":"Baileys Hill","cat":"Park","lat":42.41925,"lon":-70.92973},{"name":"Nahant Thicket Wildlife Sancuary","cat":"Nature reserve","lat":42.42188,"lon":-70.91426},{"name":"Nahant Beach/Lynn Shore Reservations","cat":"Nature reserve","lat":42.44663,"lon":-70.93772}],"2500968645|Vinnin Square":[{"name":"Whales Beach","cat":"Beach","lat":42.46363,"lon":-70.90531},{"name":"Eisman's Beach","cat":"Beach","lat":42.46388,"lon":-70.90135},{"name":"Mary Baker Eddy Historic House","cat":"Museum","lat":42.47122,"lon":-70.9204},{"name":"Howland Park","cat":"Park","lat":42.47141,"lon":-70.91629},{"name":"Linscott Park","cat":"Park","lat":42.46882,"lon":-70.91688},{"name":"Palmer Pond Conservation Area","cat":"Nature reserve","lat":42.47096,"lon":-70.88792}],"2500938400|Clifton":[{"name":"Greystone Beach","cat":"Beach","lat":42.48647,"lon":-70.8644},{"name":"Beach Bluff Park","cat":"Park","lat":42.47859,"lon":-70.87999},{"name":"Gatchell Playgound","cat":"Park","lat":42.49451,"lon":-70.87849},{"name":"Wyman Woods","cat":"Nature reserve","lat":42.49642,"lon":-70.87967},{"name":"Lead Mills Conservation Area","cat":"Nature reserve","lat":42.49725,"lon":-70.88497}],"2500938400|Peach\u2019s Point":[{"name":"Devereaux Beach","cat":"Beach","lat":42.49001,"lon":-70.85686},{"name":"Garmet Beach","cat":"Beach","lat":42.4975,"lon":-70.83488},{"name":"Museum of the Grand Army of The Republic","cat":"Museum","lat":42.50531,"lon":-70.84964},{"name":"Marblehead Police Museum","cat":"Museum","lat":42.50527,"lon":-70.84967},{"name":"Seaside Park","cat":"Park","lat":42.49493,"lon":-70.85725},{"name":"Chandler-Hovey Park","cat":"Park","lat":42.505,"lon":-70.83336}],"2500938400|West Town Landing":[{"name":"Stramski's Beach","cat":"Beach","lat":42.51438,"lon":-70.86617},{"name":"Gerry Playground","cat":"Park","lat":42.51351,"lon":-70.86334},{"name":"Orne Playground","cat":"Park","lat":42.50808,"lon":-70.863},{"name":"Robinson Farm Conservation Area","cat":"Nature reserve","lat":42.50336,"lon":-70.86264},{"name":"Turner Woods","cat":"Nature reserve","lat":42.50727,"lon":-70.8593},{"name":"William Pattison Landing","cat":"Historic site","lat":42.51457,"lon":-70.86565}],"2500959105|South Salem":[{"name":"Willow Ave Beach","cat":"Beach","lat":42.51019,"lon":-70.88798},{"name":"Glendale Cove Beach","cat":"Beach","lat":42.50869,"lon":-70.88694},{"name":"Pioneer Village","cat":"Museum","lat":42.50796,"lon":-70.8858},{"name":"Sophia Gordon Center","cat":"Theater","lat":42.50359,"lon":-70.89006},{"name":"Sullivan Front Lawn","cat":"Park","lat":42.50475,"lon":-70.89082},{"name":"Upper Quad","cat":"Park","lat":42.50379,"lon":-70.89102}],"2500959105|Vinnin Square":[{"name":"Pickman Park","cat":"Park","lat":42.49568,"lon":-70.89085},{"name":"Conservation Land","cat":"Nature reserve","lat":42.50144,"lon":-70.90125},{"name":"Thompsons Meadow","cat":"Nature reserve","lat":42.48677,"lon":-70.91278},{"name":"Starbucks","cat":"Cafe","lat":42.50071,"lon":-70.89499},{"name":"Sweet Java","cat":"Cafe","lat":42.48621,"lon":-70.90087},{"name":"Periwinkle's Food Shop","cat":"Restaurant","lat":42.48648,"lon":-70.90121}],"2500959105|Federal Street District":[{"name":"CouchDog Brewery","cat":"Brewery","lat":42.51931,"lon":-70.89356},{"name":"Lafayette Park","cat":"Park","lat":42.51705,"lon":-70.89342},{"name":"High Street Park","cat":"Park","lat":42.51834,"lon":-70.897},{"name":"Lafayette's Tour","cat":"Historic site","lat":42.51692,"lon":-70.89309},{"name":"Philips House","cat":"Historic site","lat":42.51926,"lon":-70.90261},{"name":"Punto Urban Art Museum","cat":"Arts center","lat":42.51823,"lon":-70.89333}],"2500959105|Downtown Salem District":[{"name":"Old Town Hall","cat":"Museum","lat":42.52088,"lon":-70.89463},{"name":"Witch History Museum","cat":"Museum","lat":42.52149,"lon":-70.89406},{"name":"Notch Brewery, Tap Room & Biergarten","cat":"Brewery","lat":42.51967,"lon":-70.8908},{"name":"East Regiment Beer Company","cat":"Brewery","lat":42.52264,"lon":-70.895},{"name":"Hatches Wharf","cat":"Park","lat":42.52089,"lon":-70.88715},{"name":"Central Wharf","cat":"Park","lat":42.51958,"lon":-70.88676}],"2500959105|East Salem":[{"name":"Dead Horse Beach","cat":"Beach","lat":42.53368,"lon":-70.87391},{"name":"Fort Pickering Beach","cat":"Beach","lat":42.53497,"lon":-70.8722},{"name":"The House of the Seven Gables","cat":"Museum","lat":42.52182,"lon":-70.88381},{"name":"Salem Witch Museum","cat":"Museum","lat":42.52371,"lon":-70.89113},{"name":"Salem Common","cat":"Park","lat":42.52417,"lon":-70.88911},{"name":"Fort Lee","cat":"Park","lat":42.53154,"lon":-70.87446}],"2500959105|Central Salem":[{"name":"Far From The Tree","cat":"Brewery","lat":42.51477,"lon":-70.89975},{"name":"Castle Hill Park","cat":"Park","lat":42.50485,"lon":-70.90442},{"name":"Splaine Park","cat":"Park","lat":42.51716,"lon":-70.90709},{"name":"Conservation Land","cat":"Nature reserve","lat":42.49149,"lon":-70.92579},{"name":"Thompsons Meadow","cat":"Nature reserve","lat":42.49034,"lon":-70.91289},{"name":"On The Grind","cat":"Cafe","lat":42.51425,"lon":-70.89999}],"2500937490|Wyoma":[{"name":"Floating Bridge Park","cat":"Park","lat":42.48652,"lon":-70.94077},{"name":"Magnolia Avenue Playground","cat":"Park","lat":42.48539,"lon":-70.95791},{"name":"Frog Pond Conservation Area","cat":"Nature reserve","lat":42.49119,"lon":-70.94492},{"name":"Lazy Dog Sports Bar","cat":"Restaurant","lat":42.48513,"lon":-70.95996},{"name":"Town House of Pizza","cat":"Restaurant","lat":42.47111,"lon":-70.96106}],"2500937490|Northwest Lynn":[{"name":"Gowdy Memorial Park","cat":"Park","lat":42.50788,"lon":-70.98267},{"name":"Overlook","cat":"Scenic view","lat":42.49889,"lon":-71.00163},{"name":"Stone Tower","cat":"Scenic view","lat":42.48989,"lon":-70.98562},{"name":"Dungeon Rock","cat":"Attraction","lat":42.4831,"lon":-70.98337},{"name":"Lynn Woods Rose Garden","cat":"Attraction","lat":42.47618,"lon":-70.98751}],"2500937490|West Lynn":[{"name":"Marshview Park","cat":"Park","lat":42.45965,"lon":-70.98812},{"name":"Walnut Street Cafe","cat":"Cafe","lat":42.47019,"lon":-70.97189},{"name":"Pamino's","cat":"Restaurant","lat":42.47373,"lon":-70.98931},{"name":"Scopa Italian Kitchen & Bar","cat":"Restaurant","lat":42.46002,"lon":-70.98902}],"2500937490|Raddin Station":[{"name":"Bent Water Brewing Company","cat":"Brewery","lat":42.45639,"lon":-70.9569},{"name":"General Electric Athletic Association Field","cat":"Park","lat":42.45915,"lon":-70.975},{"name":"Ames Playground","cat":"Park","lat":42.46839,"lon":-70.96017},{"name":"Honey Dew","cat":"Cafe","lat":42.45357,"lon":-70.97647},{"name":"Camilla's Cafe & Breakfast","cat":"Cafe","lat":42.46222,"lon":-70.96546},{"name":"Cafe El Molino","cat":"Restaurant","lat":42.45679,"lon":-70.97249}],"2500937490|Central Lynn":[{"name":"Lynn Memorial Auditorium","cat":"Arts center","lat":42.46481,"lon":-70.95125},{"name":"Rossetti","cat":"Restaurant","lat":42.464,"lon":-70.94928},{"name":"R.F. O'Sullivan's","cat":"Restaurant","lat":42.4645,"lon":-70.95002}],"2500937490|East Lynn":[{"name":"Kings Beach","cat":"Beach","lat":42.46489,"lon":-70.92239},{"name":"Lynn Beach","cat":"Beach","lat":42.45745,"lon":-70.93411},{"name":"G.A.R. Hall and Museum of Lynn, MA","cat":"Museum","lat":42.4632,"lon":-70.94826},{"name":"Lynn Museum & Arts Center","cat":"Museum","lat":42.46304,"lon":-70.94397},{"name":"Neal Rantoul Vault Theatre","cat":"Theater","lat":42.46328,"lon":-70.9435},{"name":"Cook Street Playground","cat":"Park","lat":42.47306,"lon":-70.94662}],"2500937490|Southeast Lynn":[{"name":"Marion Gardens Playground","cat":"Park","lat":42.4617,"lon":-70.95603},{"name":"Honey Dew","cat":"Cafe","lat":42.45658,"lon":-70.95374},{"name":"Difillipo's Brick Yard Bar & Grill","cat":"Bar","lat":42.45788,"lon":-70.95183}],"2500960015|Cliftondale":[{"name":"Grandview Park","cat":"Park","lat":42.4542,"lon":-70.99894},{"name":"Bucchiere Park","cat":"Park","lat":42.44863,"lon":-70.99353},{"name":"Glen Park Kettlehole","cat":"Nature reserve","lat":42.45226,"lon":-70.99705},{"name":"Town Conservation Land","cat":"Nature reserve","lat":42.44807,"lon":-70.99722},{"name":"Family Place Roast Beef and Pizza","cat":"Restaurant","lat":42.44957,"lon":-70.9975},{"name":"K Pub Kitchen & Bar","cat":"Restaurant","lat":42.45896,"lon":-70.98907}],"2500960015|Pleasant Hills":[{"name":"Stocker Playground","cat":"Park","lat":42.45777,"lon":-70.99363},{"name":"Hammersmith Family Restaurant","cat":"Restaurant","lat":42.46287,"lon":-71.00934}],"2500960015|Oakland Vale":[{"name":"Stackpole Field","cat":"Park","lat":42.46998,"lon":-71.01439},{"name":"Off Central Street Conservation Land","cat":"Nature reserve","lat":42.47831,"lon":-71.0108},{"name":"Prankers Pond","cat":"Nature reserve","lat":42.47403,"lon":-71.0133},{"name":"Starbucks","cat":"Cafe","lat":42.48371,"lon":-71.01904},{"name":"Applebee's","cat":"Restaurant","lat":42.48771,"lon":-71.0169},{"name":"Border Cafe","cat":"Restaurant","lat":42.48442,"lon":-71.01855}],"2500960015|Merrimac Terrace":[{"name":"Salters Mill","cat":"Nature reserve","lat":42.47285,"lon":-71.00673},{"name":"Vinegar Hill","cat":"Nature reserve","lat":42.46967,"lon":-70.999},{"name":"Visitor Center","cat":"Historic site","lat":42.4686,"lon":-71.00889},{"name":"Dragon Island","cat":"Restaurant","lat":42.46575,"lon":-71.00629},{"name":"IHOP","cat":"Restaurant","lat":42.49425,"lon":-71.01505}],"2500960015|North Saugus":[{"name":"Pearce Lake Beach","cat":"Beach","lat":42.49221,"lon":-71.03555},{"name":"Breakheart Reservation","cat":"Nature reserve","lat":42.49255,"lon":-71.02029},{"name":"Curley Property","cat":"Nature reserve","lat":42.49201,"lon":-71.0242},{"name":"Starbucks","cat":"Cafe","lat":42.47498,"lon":-71.02441},{"name":"Iron Town Diner","cat":"Restaurant","lat":42.47313,"lon":-71.03552},{"name":"Lendy's","cat":"Restaurant","lat":42.47921,"lon":-71.02449}],"2500937560|Southeast Lynnfield":[{"name":"Glen Meadow Park","cat":"Park","lat":42.52423,"lon":-71.02694},{"name":"Newhall Park","cat":"Park","lat":42.51787,"lon":-71.00504},{"name":"Sherwood Forest Greenbelt","cat":"Nature reserve","lat":42.52718,"lon":-71.01292},{"name":"Town Conservation Land","cat":"Nature reserve","lat":42.52092,"lon":-71.01964},{"name":"Starbucks","cat":"Cafe","lat":42.51519,"lon":-71.03365},{"name":"Starbucks","cat":"Cafe","lat":42.50365,"lon":-71.01534}],"2500937560|Northwest Lynnfield":[{"name":"Freeman Park","cat":"Park","lat":42.52504,"lon":-71.06641},{"name":"Lynnfield Common","cat":"Park","lat":42.53945,"lon":-71.04882},{"name":"Kings Grant Greenbelt","cat":"Nature reserve","lat":42.5405,"lon":-71.02276},{"name":"Chestnut Street Conservation Land","cat":"Nature reserve","lat":42.53807,"lon":-71.05582}],"2500952490|Northwest Peabody":[{"name":"Symphony Park","cat":"Park","lat":42.55895,"lon":-71.03148},{"name":"Corbiel Park","cat":"Park","lat":42.55401,"lon":-71.00607},{"name":"Water Supply Land","cat":"Nature reserve","lat":42.55509,"lon":-70.99182},{"name":"Norris Brook Wetlands","cat":"Nature reserve","lat":42.56084,"lon":-71.00438},{"name":"Bagel World Bakery","cat":"Restaurant","lat":42.55048,"lon":-70.98276}],"2500952490|West Peabody":[{"name":"Lt. Ross Park","cat":"Park","lat":42.54574,"lon":-70.99257},{"name":"Willowbrae Park","cat":"Park","lat":42.5517,"lon":-71.02233},{"name":"Carpenter Conservation Area","cat":"Nature reserve","lat":42.54547,"lon":-70.99013},{"name":"Russell Conservation Area","cat":"Nature reserve","lat":42.54007,"lon":-70.99874},{"name":"Kitty Cat Cafe and Adoption Lounge","cat":"Cafe","lat":42.533,"lon":-70.99164},{"name":"Honey Dew","cat":"Cafe","lat":42.53549,"lon":-70.99008}],"2500952490|Proctor":[{"name":"Lalikos Park","cat":"Park","lat":42.53898,"lon":-70.97015},{"name":"Farnham Park","cat":"Park","lat":42.53419,"lon":-70.93185},{"name":"Brooksby Farm","cat":"Nature reserve","lat":42.54532,"lon":-70.96503},{"name":"Marble Meadows Conservation Area","cat":"Nature reserve","lat":42.53715,"lon":-70.96341},{"name":"Nathaniel Felton Jr. House","cat":"Historic site","lat":42.5454,"lon":-70.96028},{"name":"Peabody Historical Fire Museum","cat":"Historic site","lat":42.54451,"lon":-70.96068}],"2500952490|Needham Corner":[{"name":"Emerson Park","cat":"Park","lat":42.52509,"lon":-70.93565},{"name":"Forest Street Park","cat":"Park","lat":42.53076,"lon":-70.94559},{"name":"Castle Circle","cat":"Nature reserve","lat":42.53309,"lon":-70.94321},{"name":"Summit St","cat":"Nature reserve","lat":42.52226,"lon":-70.95194},{"name":"Peabody Public Safety Memorial","cat":"Historic site","lat":42.52597,"lon":-70.9359}],"2500952490|South Peabody":[{"name":"Raddin Road Park","cat":"Park","lat":42.51407,"lon":-70.95836},{"name":"Lakeshore Park","cat":"Park","lat":42.49932,"lon":-70.9567},{"name":"Daniel Terrace Conservation Area","cat":"Nature reserve","lat":42.50413,"lon":-70.95838},{"name":"Eleanor Dr.","cat":"Nature reserve","lat":42.51235,"lon":-70.96703},{"name":"K Restaurant","cat":"Restaurant","lat":42.51145,"lon":-70.94703}],"2500952490|East Peabody":[{"name":"Granite Coast Brewery","cat":"Brewery","lat":42.52439,"lon":-70.9242},{"name":"Pierpont Park","cat":"Park","lat":42.52153,"lon":-70.92186},{"name":"O\"Connor Park","cat":"Park","lat":42.51635,"lon":-70.92931},{"name":"Breaking Grounds","cat":"Cafe","lat":42.52452,"lon":-70.92448},{"name":"The Peabody Diner","cat":"Cafe","lat":42.53268,"lon":-70.91388},{"name":"The NexMex Thing","cat":"Restaurant","lat":42.52442,"lon":-70.92426}],"2500916250|Danversport":[{"name":"John L. George Park","cat":"Park","lat":42.55305,"lon":-70.92136},{"name":"Sandy Beach","cat":"Park","lat":42.55421,"lon":-70.9189},{"name":"Bradstreet Open Space","cat":"Nature reserve","lat":42.55364,"lon":-70.91076},{"name":"Glen Ave Saltmarsh","cat":"Nature reserve","lat":42.55787,"lon":-70.91518},{"name":"Daily Harvest Cafe","cat":"Cafe","lat":42.55908,"lon":-70.93104},{"name":"Mandarin Danvers","cat":"Restaurant","lat":42.55161,"lon":-70.93325}],"2500916250|Tapleyville":[{"name":"Danvers Square","cat":"Park","lat":42.56568,"lon":-70.93564},{"name":"Meadows Drainage Area","cat":"Nature reserve","lat":42.56286,"lon":-70.94384},{"name":"Danvers Meadows","cat":"Nature reserve","lat":42.56415,"lon":-70.94609},{"name":"Kaffmandu","cat":"Cafe","lat":42.56562,"lon":-70.93603},{"name":"Rebel Coffee & Creamery","cat":"Cafe","lat":42.56579,"lon":-70.93621},{"name":"Sawasdee Danvers","cat":"Restaurant","lat":42.5668,"lon":-70.93646}],"2500916250|Putnamville":[{"name":"Kaneb Theatre","cat":"Theater","lat":42.58064,"lon":-70.95},{"name":"Frost Fish Brook","cat":"Nature reserve","lat":42.57109,"lon":-70.92768},{"name":"Rocky Hill Conservation Area","cat":"Nature reserve","lat":42.58842,"lon":-70.93316}],"2500916250|Bruleys Corner":[{"name":"Ferncroft Pond Open Space","cat":"Nature reserve","lat":42.59402,"lon":-70.9677},{"name":"Norris Brook Conservation Area","cat":"Nature reserve","lat":42.56317,"lon":-70.99697},{"name":"Texas Roadhouse","cat":"Restaurant","lat":42.58368,"lon":-70.96454},{"name":"Supino's Italian Restaurant","cat":"Restaurant","lat":42.58394,"lon":-70.96859}],"2500916250|Ferncroft":[{"name":"Rebecca Nurse Homestead","cat":"Museum","lat":42.5582,"lon":-70.95037},{"name":"Beer and Wine Hobby","cat":"Brewery","lat":42.55367,"lon":-70.96135},{"name":"Tapley Park","cat":"Park","lat":42.55981,"lon":-70.95038},{"name":"Training Field","cat":"Park","lat":42.56734,"lon":-70.96495},{"name":"Putnamville Reservoir","cat":"Nature reserve","lat":42.60035,"lon":-70.94865},{"name":"College Pond Conservation Area","cat":"Nature reserve","lat":42.57836,"lon":-70.95294}],"2500941095|Central Middleton":[{"name":"Henry Tragert Town Common","cat":"Park","lat":42.59304,"lon":-71.01295},{"name":"Town Conservation Land","cat":"Nature reserve","lat":42.61716,"lon":-70.99537},{"name":"Sawyers Riverfront","cat":"Nature reserve","lat":42.61639,"lon":-70.99721}],"2500941095|West Middleton":[{"name":"Hocter Park","cat":"Park","lat":42.58133,"lon":-71.01609},{"name":"Howe-Manning Recreation Area","cat":"Park","lat":42.59829,"lon":-71.01642},{"name":"Aunt Betts Pond Land","cat":"Nature reserve","lat":42.59662,"lon":-71.02872},{"name":"Nichols Putnam","cat":"Nature reserve","lat":42.6091,"lon":-71.01906},{"name":"Angelica's","cat":"Restaurant","lat":42.59237,"lon":-71.01507},{"name":"Crossroads Kitchen & Bar","cat":"Restaurant","lat":42.58634,"lon":-71.01003}],"2500907420|Central Boxford":[{"name":"Boy Scout Park","cat":"Park","lat":42.6572,"lon":-70.99437},{"name":"Boy Scout Park","cat":"Park","lat":42.6548,"lon":-70.99541},{"name":"Stephen Maddock Memorial Woodlot","cat":"Nature reserve","lat":42.6406,"lon":-70.99246},{"name":"Chaplin Perley Woods","cat":"Nature reserve","lat":42.63819,"lon":-70.99623},{"name":"Jacob Perkins Grave","cat":"Historic site","lat":42.69719,"lon":-70.99328},{"name":"Boxford/North Andover Boundary","cat":"Historic site","lat":42.6898,"lon":-71.05911}],"2500970150|Central Topsfield":[{"name":"Hood Pond Community Beach","cat":"Beach","lat":42.66852,"lon":-70.95573},{"name":"Pye Brook Community Park","cat":"Park","lat":42.66175,"lon":-70.96053},{"name":"Klock Park","cat":"Park","lat":42.65301,"lon":-70.93749},{"name":"ECGA Land","cat":"Nature reserve","lat":42.61275,"lon":-70.94492},{"name":"Conservation Land","cat":"Nature reserve","lat":42.65709,"lon":-70.95772},{"name":"Canoe Landing","cat":"Scenic view","lat":42.62716,"lon":-70.91797}],"2500927900|East Hamilton":[{"name":"Patton Park","cat":"Park","lat":42.61486,"lon":-70.87059},{"name":"Cutler Park","cat":"Park","lat":42.62099,"lon":-70.85627},{"name":"School Street Well Area","cat":"Nature reserve","lat":42.61242,"lon":-70.83407},{"name":"Bridge Street Well Area","cat":"Nature reserve","lat":42.61617,"lon":-70.84394},{"name":"M4 Sherman Tank","cat":"Historic site","lat":42.61458,"lon":-70.87153},{"name":"Masconomet Burial Site","cat":"Historic site","lat":42.6311,"lon":-70.8194}],"2500927900|Asbury Grove":[{"name":"Fairhaven Field","cat":"Park","lat":42.61219,"lon":-70.8812},{"name":"Patton Wells Area","cat":"Nature reserve","lat":42.63306,"lon":-70.89987},{"name":"Essex County Greenbelt Land","cat":"Nature reserve","lat":42.63167,"lon":-70.89802},{"name":"The Round Point","cat":"Historic site","lat":42.64024,"lon":-70.86373}],"2500974595|Wenham":[{"name":"Wenham Museum","cat":"Museum","lat":42.60384,"lon":-70.88714},{"name":"Pingree Park","cat":"Park","lat":42.60975,"lon":-70.87882},{"name":"Carbarn Lot","cat":"Park","lat":42.60542,"lon":-70.88665},{"name":"Iron Rail Property","cat":"Nature reserve","lat":42.59884,"lon":-70.84352},{"name":"Pine & Hemlock Knoll","cat":"Nature reserve","lat":42.61682,"lon":-70.90073}],"2500905595|North Beverly":[{"name":"Future Home of the Massachusetts Air and Space Museum","cat":"Museum","lat":42.58637,"lon":-70.91219},{"name":"North Shore Music Theatre","cat":"Theater","lat":42.57587,"lon":-70.86963},{"name":"Pete's Park","cat":"Park","lat":42.57919,"lon":-70.8533},{"name":"Harry Ball Park","cat":"Park","lat":42.576,"lon":-70.85087},{"name":"Beaver Pond Area","cat":"Nature reserve","lat":42.57839,"lon":-70.8618},{"name":"Alt Reservation","cat":"Nature reserve","lat":42.58452,"lon":-70.8586}],"2500905595|Rial Side":[{"name":"Femino Park","cat":"Park","lat":42.55523,"lon":-70.90491},{"name":"Colgate Park","cat":"Park","lat":42.56753,"lon":-70.90085}],"2500905595|Beverly Center Business District":[{"name":"Dane Street Beach","cat":"Beach","lat":42.54454,"lon":-70.87449},{"name":"Dane Street Beach","cat":"Beach","lat":42.54779,"lon":-70.86948},{"name":"Cabot Theatre","cat":"Theater","lat":42.55147,"lon":-70.87904},{"name":"Old Planters Brewing Co.","cat":"Brewery","lat":42.54933,"lon":-70.88386},{"name":"Gentile Brewing Company","cat":"Brewery","lat":42.54941,"lon":-70.88438},{"name":"McKay Playground","cat":"Park","lat":42.55967,"lon":-70.88959}],"2500905595|Montserrat":[{"name":"Holcroft Park","cat":"Park","lat":42.55691,"lon":-70.8845},{"name":"Innocenti Park","cat":"Park","lat":42.55163,"lon":-70.88628},{"name":"The Cotton Mill Cafe","cat":"Cafe","lat":42.55625,"lon":-70.88088},{"name":"Stephy's Kitchen","cat":"Restaurant","lat":42.55805,"lon":-70.8819},{"name":"Bass Haven Yacht Club","cat":"Marina","lat":42.55429,"lon":-70.88685}],"2500905595|Centerville":[{"name":"Patch Beach","cat":"Beach","lat":42.54931,"lon":-70.8517},{"name":"Oak Heights Playground","cat":"Park","lat":42.58961,"lon":-70.83691},{"name":"Camp Paradise","cat":"Nature reserve","lat":42.56921,"lon":-70.85129},{"name":"Bald Hill Open Space","cat":"Nature reserve","lat":42.57778,"lon":-70.8453}],"2500905595|Prides Crossing":[{"name":"West Beach","cat":"Beach","lat":42.55733,"lon":-70.81236},{"name":"Dix Park","cat":"Park","lat":42.56486,"lon":-70.81628},{"name":"Misery Island Reservation","cat":"Park","lat":42.54924,"lon":-70.79832},{"name":"Greenbelt Bolt #3","cat":"Nature reserve","lat":42.58184,"lon":-70.80938},{"name":"Greenbelt Bolt #2","cat":"Nature reserve","lat":42.55928,"lon":-70.83554},{"name":"Pump House Ruin","cat":"Historic site","lat":42.54952,"lon":-70.79751}],"2500937995|Manchester-by-the-Sea":[{"name":"Singing Beach","cat":"Beach","lat":42.56797,"lon":-70.76053},{"name":"Black Beach","cat":"Beach","lat":42.57872,"lon":-70.73184},{"name":"Trask House Museum","cat":"Museum","lat":42.57533,"lon":-70.77108},{"name":"Sweeney Park","cat":"Park","lat":42.57855,"lon":-70.75747},{"name":"Magnolia Surf Park","cat":"Park","lat":42.57761,"lon":-70.7161},{"name":"Millets Brook Reservation","cat":"Nature reserve","lat":42.59003,"lon":-70.77579}],"2500957880|Lands End":[{"name":"Long Beach","cat":"Beach","lat":42.63013,"lon":-70.61658},{"name":"Old Garden Beach","cat":"Beach","lat":42.65827,"lon":-70.60725},{"name":"Shalin Liu Perfomance Center","cat":"Theater","lat":42.65844,"lon":-70.61887},{"name":"The Headlands","cat":"Park","lat":42.65939,"lon":-70.61096},{"name":"Millbrook Meadow","cat":"Park","lat":42.65892,"lon":-70.62287},{"name":"DeLamater Sanctuary","cat":"Nature reserve","lat":42.64609,"lon":-70.6022}],"2500957880|Bearskin Neck":[{"name":"James A. Babson Museum","cat":"Museum","lat":42.63879,"lon":-70.63879},{"name":"Manning Park","cat":"Park","lat":42.66058,"lon":-70.62858},{"name":"Pigeon Hill Park","cat":"Park","lat":42.67244,"lon":-70.62887},{"name":"Conservation Land","cat":"Nature reserve","lat":42.65255,"lon":-70.63235},{"name":"Pool Hill Town Forest","cat":"Nature reserve","lat":42.65176,"lon":-70.63456},{"name":"Lattof Farmhouse Kitchen","cat":"Cafe","lat":42.64852,"lon":-70.62629}],"2500926150|Bay View":[{"name":"Folly Cove Shore Dive Site","cat":"Beach","lat":42.68509,"lon":-70.64213},{"name":"Plum Cove Landing","cat":"Park","lat":42.6738,"lon":-70.6634},{"name":"Goose Cove Reservation","cat":"Nature reserve","lat":42.64735,"lon":-70.67009},{"name":"Swett Woodlot","cat":"Nature reserve","lat":42.65618,"lon":-70.65213},{"name":"Annisquam Exchange and Art Gallery","cat":"Arts center","lat":42.65509,"lon":-70.6781},{"name":"Talise","cat":"Restaurant","lat":42.65296,"lon":-70.6765}],"2500926150|East Gloucester":[{"name":"Good Harbor Beach","cat":"Beach","lat":42.61954,"lon":-70.63143},{"name":"Niles Beach","cat":"Beach","lat":42.59591,"lon":-70.65443},{"name":"Beauport Museum","cat":"Museum","lat":42.59101,"lon":-70.65993},{"name":"Keith Trefry Park","cat":"Park","lat":42.60393,"lon":-70.65586},{"name":"Swinsons Farm Park","cat":"Park","lat":42.60508,"lon":-70.64852},{"name":"Marble Road Conservation Area","cat":"Nature reserve","lat":42.60375,"lon":-70.64417}],"2500926150|Five Pound Island":[{"name":"Cape Ann Historical Museum","cat":"Museum","lat":42.61383,"lon":-70.66185},{"name":"Cape Ann Museum","cat":"Museum","lat":42.61402,"lon":-70.66162},{"name":"Fishermans Memorial Park","cat":"Park","lat":42.61856,"lon":-70.65775},{"name":"Green Street Park","cat":"Park","lat":42.62002,"lon":-70.65777},{"name":"Green Street Landing and Marsh","cat":"Nature reserve","lat":42.62138,"lon":-70.67848},{"name":"Fishermens' Monument","cat":"Historic site","lat":42.61011,"lon":-70.67034}],"2500926150|Riverview":[{"name":"CAM Green","cat":"Museum","lat":42.62293,"lon":-70.67482},{"name":"Paprika Grill","cat":"Restaurant","lat":42.61884,"lon":-70.67186},{"name":"George's","cat":"Restaurant","lat":42.61858,"lon":-70.67188}],"2500926150|Riverview Landing":[{"name":"Brown's Field & Apple Street Playground","cat":"Park","lat":42.63334,"lon":-70.68134},{"name":"Poles Hill","cat":"Nature reserve","lat":42.629,"lon":-70.68347}],"2500926150|West Gloucester":[{"name":"Coffins Beach","cat":"Beach","lat":42.66259,"lon":-70.71755},{"name":"Wingaersheek Beach","cat":"Beach","lat":42.65015,"lon":-70.6857},