{"2500103690":{"cool_spots":[{"name":"Sandy Neck Beach","cat":"Beach","lat":41.73955,"lon":-70.37864},{"name":"Craigville Beach","cat":"Beach","lat":41.63206,"lon":-70.35641},{"name":"Dowses Beach","cat":"Beach","lat":41.62233,"lon":-70.36613},{"name":"Keyes Memorial Beach","cat":"Beach","lat":41.63539,"lon":-70.29113},{"name":"Long Beach","cat":"Beach","lat":41.62928,"lon":-70.36058},{"name":"Wianno Beach","cat":"Beach","lat":41.614,"lon":-70.37447},{"name":"Hyannis Port Beach","cat":"Beach","lat":41.63344,"lon":-70.29835},{"name":"Oregon Beach","cat":"Beach","lat":41.59611,"lon":-70.44452},{"name":"Christian Camp Meeting Beach","cat":"Beach","lat":41.63629,"lon":-70.33671},{"name":"Long Beach","cat":"Beach","lat":41.63079,"lon":-70.35121},{"name":"Millway Beach","cat":"Beach","lat":41.70838,"lon":-70.29744},{"name":"Keyes Beach","cat":"Beach","lat":41.63484,"lon":-70.29363}],"reasons_buy":[{"text":"Oceanfront town","cat":"water_beach","q":"curated"},{"text":"Rich culture \u2014 21 museums, theaters & galleries","cat":"green_culture","q":"measured"},{"text":"18 public beaches in town","cat":"water_beach","q":"measured"},{"text":"Plenty of green space \u2014 112 parks & reserves","cat":"green_culture","q":"measured"},{"text":"Premier vacation market (Cape / Berkshires) \u2014 strong second-home demand","cat":"second_home","q":"proxy"},{"text":"On the MBTA commuter rail to Boston","cat":"transit","q":"measured"},{"text":"Fast in-migration: population +8% (2010\u201320), top 27% statewide","cat":"population_growth","q":"measured"},{"text":"Values up 39% over the last 5 years","cat":"appreciation","q":"measured"},{"text":"Lively local scene \u2014 2 breweries & 8 caf\u00e9s","cat":"trendy","q":"measured"}],"reasons_avoid":[{"text":"Typical home $719k \u2014 above your $400\u2013600k budget","cat":"budget","q":"measured"},{"text":"Not near a major-employer growth hub","cat":"employer","q":"curated"}]},"2500107175":{"cool_spots":[{"name":"Merriam Beach","cat":"Beach","lat":41.66677,"lon":-70.63698},{"name":"Southwest Beach","cat":"Beach","lat":41.66261,"lon":-70.64948},{"name":"Sagamore Beach","cat":"Beach","lat":41.79344,"lon":-70.52031},{"name":"Monument Beach","cat":"Beach","lat":41.71538,"lon":-70.61475},{"name":"Taylors Point Beach","cat":"Beach","lat":41.7456,"lon":-70.62138},{"name":"Taylors Point Beach","cat":"Beach","lat":41.74289,"lon":-70.62413},{"name":"The Strand","cat":"Beach","lat":41.80784,"lon":-70.53585},{"name":"The Strand","cat":"Beach","lat":41.79746,"lon":-70.52523},{"name":"North Shore Beach","cat":"Beach","lat":41.69711,"lon":-70.62838},{"name":"Eustis Beach","cat":"Beach","lat":41.66359,"lon":-70.63283},{"name":"Monument Beach","cat":"Beach","lat":41.72183,"lon":-70.61701},{"name":"Sunrise Beach","cat":"Beach","lat":41.66186,"lon":-70.63715}],"reasons_buy":[{"text":"Oceanfront town","cat":"water_beach","q":"curated"},{"text":"14 public beaches in town","cat":"water_beach","q":"measured"},{"text":"On the MBTA commuter rail to Boston","cat":"transit","q":"measured"},{"text":"Plenty of green space \u2014 130 parks & reserves","cat":"green_culture","q":"measured"},{"text":"Values up 41% over the last 5 years","cat":"appreciation","q":"measured"},{"text":"Real vacation / second-home appeal","cat":"second_home","q":"proxy"},{"text":"Growing population: +4% (2010\u201320)","cat":"population_growth","q":"measured"}],"reasons_avoid":[{"text":"Typical home $663k \u2014 above your $400\u2013600k budget","cat":"budget","q":"measured"},{"text":"Not near a major-employer growth hub","cat":"employer","q":"curated"}]},"2500107980":{"cool_spots":[{"name":"Ellis Landing Beach","cat":"Beach","lat":41.77568,"lon":-70.05489},{"name":"Point of Rocks Landing Beach","cat":"Beach","lat":41.77233,"lon":-70.0703},{"name":"Robbins Hill Beach","cat":"Beach","lat":41.76233,"lon":-70.10863},{"name":"Paine's Creek Beach","cat":"Beach","lat":41.7615,"lon":-70.11363},{"name":"Robbins Hill Beach","cat":"Beach","lat":41.76553,"lon":-70.09683},{"name":"Robbins Hill Beach","cat":"Beach","lat":41.76163,"lon":-70.11195},{"name":"Cobb House Museum","cat":"Museum","lat":41.76168,"lon":-70.0876},{"name":"Stony Brook Grist Mill & Museum","cat":"Museum","lat":41.74468,"lon":-70.11259},{"name":"Cape Rep Outdoor Theatre","cat":"Theater","lat":41.77762,"lon":-70.03681},{"name":"Cape Rep Indoor Theatre","cat":"Theater","lat":41.77822,"lon":-70.03739},{"name":"Cape Cod Museum Of Natural History","cat":"Nature reserve","lat":41.75377,"lon":-70.11591},{"name":"Rione","cat":"Nature reserve","lat":41.75505,"lon":-70.09888}],"reasons_buy":[{"text":"Oceanfront town","cat":"water_beach","q":"curated"},{"text":"6 public beaches in town","cat":"water_beach","q":"measured"},{"text":"Rich culture \u2014 5 museums, theaters & galleries","cat":"green_culture","q":"measured"},{"text":"Plenty of green space \u2014 90 parks & reserves","cat":"green_culture","q":"measured"},{"text":"Premier vacation market (Cape / Berkshires) \u2014 strong second-home demand","cat":"second_home","q":"proxy"},{"text":"Values up 42% over the last 5 years","cat":"appreciation","q":"measured"},{"text":"Growing population: +5% (2010\u201320)","cat":"population_growth","q":"measured"}],"reasons_avoid":[{"text":"Typical home $787k \u2014 above your $400\u2013600k budget","cat":"budget","q":"measured"},{"text":"No MBTA rail station \u2014 car-dependent commute","cat":"transit","q":"measured"},{"text":"Far from major universities (nearest UMass Dartmouth, 49 mi)","cat":"universities","q":"measured"},{"text":"Not near a major-employer growth hub","cat":"employer","q":"curated"}]},"2500112995":{"cool_spots":[{"name":"Strong Island Beach","cat":"Beach","lat":41.72311,"lon":-69.95442},{"name":"Hardings Beach","cat":"Beach","lat":41.66333,"lon":-69.99006},{"name":"Forest Beach","cat":"Beach","lat":41.67013,"lon":-70.02188},{"name":"Fisherman's Landing","cat":"Beach","lat":41.69523,"lon":-70.01016},{"name":"Atwood House Museum","cat":"Museum","lat":41.67355,"lon":-69.96511},{"name":"Chatham Marconi Maritime Center","cat":"Museum","lat":41.70375,"lon":-69.98019},{"name":"Monomy Theatre","cat":"Theater","lat":41.68457,"lon":-69.96464},{"name":"Red River Conservation Area","cat":"Nature reserve","lat":41.67824,"lon":-70.03178},{"name":"Cranberry Lane","cat":"Nature reserve","lat":41.67584,"lon":-70.00463},{"name":"Veterans' Park","cat":"Park","lat":41.68494,"lon":-69.96256},{"name":"Kate Gould Park","cat":"Park","lat":41.68037,"lon":-69.95656},{"name":"Chatham Civil War Memorial","cat":"Historic site","lat":41.68216,"lon":-69.95919}],"reasons_buy":[{"text":"Premier vacation market (islands / outer Cape) \u2014 strong second-home demand","cat":"second_home","q":"proxy"},{"text":"Oceanfront town","cat":"water_beach","q":"curated"},{"text":"4 public beaches in town","cat":"water_beach","q":"measured"},{"text":"Rich culture \u2014 6 museums, theaters & galleries","cat":"green_culture","q":"measured"},{"text":"Plenty of green space \u2014 217 parks & reserves","cat":"green_culture","q":"measured"},{"text":"Strong track record \u2014 values up 53% in 5 years","cat":"appreciation","q":"measured"},{"text":"Growing population: +8% (2010\u201320)","cat":"population_growth","q":"measured"},{"text":"Lively local scene \u2014 8 caf\u00e9s","cat":"trendy","q":"measured"},{"text":"Its strongest factor: vacation / second-home demand (100/100)","cat":"second_home","q":"proxy"}],"reasons_avoid":[{"text":"Typical home $1.31M \u2014 above your $400\u2013600k budget","cat":"budget","q":"measured"},{"text":"No MBTA rail station \u2014 car-dependent commute","cat":"transit","q":"measured"},{"text":"Among the priciest in MA (~119% over the median)","cat":"budget","q":"measured"},{"text":"Far from major universities (nearest UMass Dartmouth, 52 mi)","cat":"universities","q":"measured"},{"text":"Not near a major-employer growth hub","cat":"employer","q":"curated"}]},"2500116775":{"cool_spots":[{"name":"Chapin Memorial Beach","cat":"Beach","lat":41.73205,"lon":-70.23419},{"name":"Sesuit Beach","cat":"Beach","lat":41.75622,"lon":-70.15224},{"name":"Glendon Road Beach","cat":"Beach","lat":41.65067,"lon":-70.14224},{"name":"Sea Street Beach","cat":"Beach","lat":41.65223,"lon":-70.13419},{"name":"Inman Road Beach","cat":"Beach","lat":41.65539,"lon":-70.1203},{"name":"Crowe's Pasture","cat":"Beach","lat":41.76007,"lon":-70.13261},{"name":"Depot Street Beach","cat":"Beach","lat":41.65465,"lon":-70.12477},{"name":"Horsefoot Path Beach","cat":"Beach","lat":41.74077,"lon":-70.2213},{"name":"Cliff Metcalf Memorial Beach","cat":"Beach","lat":41.65538,"lon":-70.12019},{"name":"Josiah Dennis Manse Museum","cat":"Museum","lat":41.7395,"lon":-70.19885},{"name":"Cape Cod Museum of Art","cat":"Museum","lat":41.74009,"lon":-70.19421},{"name":"Cape Cod Playhouse","cat":"Theater","lat":41.74069,"lon":-70.19188}],"reasons_buy":[{"text":"Oceanfront town","cat":"water_beach","q":"curated"},{"text":"9 public beaches in town","cat":"water_beach","q":"measured"},{"text":"Plenty of green space \u2014 84 parks & reserves","cat":"green_culture","q":"measured"},{"text":"Premier vacation market (Cape / Berkshires) \u2014 strong second-home demand","cat":"second_home","q":"proxy"},{"text":"Strong public schools (4/5)","cat":"schools","q":"curated"},{"text":"Values up 42% over the last 5 years","cat":"appreciation","q":"measured"},{"text":"Growing population: +3% (2010\u201320)","cat":"population_growth","q":"measured"}],"reasons_avoid":[{"text":"Typical home $671k \u2014 above your $400\u2013600k budget","cat":"budget","q":"measured"},{"text":"No MBTA rail station \u2014 car-dependent commute","cat":"transit","q":"measured"},{"text":"Far from major universities (nearest UMass Dartmouth, 43 mi)","cat":"universities","q":"measured"},{"text":"Not near a major-employer growth hub","cat":"employer","q":"curated"}]},"2500119295":{"cool_spots":[{"name":"Nauset Light Beach","cat":"Beach","lat":41.85905,"lon":-69.95117},{"name":"Coast Guard Beach","cat":"Beach","lat":41.84506,"lon":-69.94716},{"name":"First Encounter Beach","cat":"Beach","lat":41.81868,"lon":-70.00286},{"name":"Herring Brook Beach","cat":"Beach","lat":41.83026,"lon":-70.00385},{"name":"Wiley Park Beach","cat":"Beach","lat":41.83354,"lon":-69.9952},{"name":"Sunken Meadow Beach","cat":"Beach","lat":41.87186,"lon":-70.00883},{"name":"Campground Beach","cat":"Beach","lat":41.85098,"lon":-70.00613},{"name":"Cooks Brook Beach","cat":"Beach","lat":41.86112,"lon":-70.0075},{"name":"Cooks Brook Beach","cat":"Beach","lat":41.86482,"lon":-70.00804},{"name":"Thumpertown Beach","cat":"Beach","lat":41.84358,"lon":-70.0052},{"name":"Herring Pond Beach","cat":"Beach","lat":41.82299,"lon":-69.98805},{"name":"Eastham 1869 Schoolhouse Museum","cat":"Museum","lat":41.83857,"lon":-69.97406}],"reasons_buy":[{"text":"Premier vacation market (islands / outer Cape) \u2014 strong second-home demand","cat":"second_home","q":"proxy"},{"text":"Oceanfront town","cat":"water_beach","q":"curated"},{"text":"11 public beaches in town","cat":"water_beach","q":"measured"},{"text":"Fast in-migration: population +16% (2010\u201320), top 5% statewide","cat":"population_growth","q":"measured"},{"text":"Plenty of green space \u2014 33 parks & reserves","cat":"green_culture","q":"measured"},{"text":"Values up 37% over the last 5 years","cat":"appreciation","q":"measured"},{"text":"Its strongest factor: vacation / second-home demand (100/100)","cat":"second_home","q":"proxy"}],"reasons_avoid":[{"text":"Typical home $810k \u2014 above your $400\u2013600k budget","cat":"budget","q":"measured"},{"text":"No MBTA rail station \u2014 car-dependent commute","cat":"transit","q":"measured"},{"text":"Far from major universities (nearest Bridgewater State University, 51 mi)","cat":"universities","q":"measured"},{"text":"Not near a major-employer growth hub","cat":"employer","q":"curated"}]},"2500123105":{"cool_spots":[{"name":"Black Beach","cat":"Beach","lat":41.59177,"lon":-70.6467},{"name":"Chappaquoit Beach","cat":"Beach","lat":41.6015,"lon":-70.65086},{"name":"Menauhant Beach","cat":"Beach","lat":41.54976,"lon":-70.55516},{"name":"Public Beach Quissett Harbor","cat":"Beach","lat":41.54365,"lon":-70.65533},{"name":"Public Beach Buzzards Bay","cat":"Beach","lat":41.54294,"lon":-70.65885},{"name":"Stoney Beach","cat":"Beach","lat":41.52909,"lon":-70.67438},{"name":"Trunk River Beach","cat":"Beach","lat":41.53354,"lon":-70.64268},{"name":"Falmouth Beach","cat":"Beach","lat":41.53993,"lon":-70.62875},{"name":"Trunk River Beach","cat":"Beach","lat":41.53473,"lon":-70.64122},{"name":"Menahaunt Beach","cat":"Beach","lat":41.54937,"lon":-70.55739},{"name":"Menahaunt Beach","cat":"Beach","lat":41.54968,"lon":-70.55384},{"name":"Garbage Beach","cat":"Beach","lat":41.52515,"lon":-70.67322}],"reasons_buy":[{"text":"Oceanfront town","cat":"water_beach","q":"curated"},{"text":"15 public beaches in town","cat":"water_beach","q":"measured"},{"text":"Rich culture \u2014 5 museums, theaters & galleries","cat":"green_culture","q":"measured"},{"text":"Plenty of green space \u2014 128 parks & reserves","cat":"green_culture","q":"measured"},{"text":"Premier vacation market (Cape / Berkshires) \u2014 strong second-home demand","cat":"second_home","q":"proxy"},{"text":"Values up 41% over the last 5 years","cat":"appreciation","q":"measured"},{"text":"Growing population: +3% (2010\u201320)","cat":"population_growth","q":"measured"}],"reasons_avoid":[{"text":"Typical home $848k \u2014 above your $400\u2013600k budget","cat":"budget","q":"measured"},{"text":"No MBTA rail station \u2014 car-dependent commute","cat":"transit","q":"measured"},{"text":"Not near a major-employer growth hub","cat":"employer","q":"curated"}]},"2500129020":{"cool_spots":[{"name":"Pleasant Road Beach","cat":"Beach","lat":41.65972,"lon":-70.10621},{"name":"Earle Road Beach","cat":"Beach","lat":41.6616,"lon":-70.09692},{"name":"Bank Street Beach","cat":"Beach","lat":41.66345,"lon":-70.07057},{"name":"Seymoor pond beach","cat":"Beach","lat":41.72455,"lon":-70.08577},{"name":"Red River Beach","cat":"Beach","lat":41.66738,"lon":-70.04118},{"name":"Brooks Academy Museum","cat":"Museum","lat":41.68544,"lon":-70.07666},{"name":"Herring River Greenbelt","cat":"Nature reserve","lat":41.6896,"lon":-70.12309},{"name":"Slowatycki Property","cat":"Nature reserve","lat":41.68318,"lon":-70.09634},{"name":"Larsen Park","cat":"Park","lat":41.66815,"lon":-70.06595},{"name":"Brooks Park","cat":"Park","lat":41.68744,"lon":-70.06946},{"name":"Brenton I Wixon Memorial Park","cat":"Historic site","lat":41.72446,"lon":-70.04264},{"name":"Grand Slam Entertainment","cat":"Attraction","lat":41.67168,"lon":-70.09424}],"reasons_buy":[{"text":"Oceanfront town","cat":"water_beach","q":"curated"},{"text":"5 public beaches in town","cat":"water_beach","q":"measured"},{"text":"Fast in-migration: population +10% (2010\u201320), top 19% statewide","cat":"population_growth","q":"measured"},{"text":"Premier vacation market (Cape / Berkshires) \u2014 strong second-home demand","cat":"second_home","q":"proxy"},{"text":"Strong track record \u2014 values up 45% in 5 years","cat":"appreciation","q":"measured"},{"text":"Plenty of green space \u2014 79 parks & reserves","cat":"green_culture","q":"measured"}],"reasons_avoid":[{"text":"Typical home $754k \u2014 above your $400\u2013600k budget","cat":"budget","q":"measured"},{"text":"No MBTA rail station \u2014 car-dependent commute","cat":"transit","q":"measured"},{"text":"Far from major universities (nearest UMass Dartmouth, 48 mi)","cat":"universities","q":"measured"},{"text":"Not near a major-employer growth hub","cat":"employer","q":"curated"}]},"2500139100":{"cool_spots":[{"name":"South Cape Beach","cat":"Beach","lat":41.55086,"lon":-70.51044},{"name":"Hurricane beach","cat":"Beach","lat":41.55671,"lon":-70.51496},{"name":"Cape Cod Children's Museum","cat":"Museum","lat":41.59018,"lon":-70.47696},{"name":"Mashpee Wampanoag Indian Museum","cat":"Museum","lat":41.64931,"lon":-70.48597},{"name":"Naukabout Brewery","cat":"Brewery","lat":41.65005,"lon":-70.48409},{"name":"Mashpee River Reservation","cat":"Nature reserve","lat":41.62575,"lon":-70.48391},{"name":"Mashpee River Reservation","cat":"Nature reserve","lat":41.62835,"lon":-70.48378},{"name":"Collins Lot","cat":"Park","lat":41.64845,"lon":-70.48213},{"name":"Park","cat":"Park","lat":41.65938,"lon":-70.46864},{"name":"viewing deck","cat":"Scenic view","lat":41.55217,"lon":-70.50005},{"name":"Mashpee Veterans' War Monument","cat":"Historic site","lat":41.64868,"lon":-70.48207},{"name":"Trout's Grave","cat":"Historic site","lat":41.64672,"lon":-70.45334}],"reasons_buy":[{"text":"Oceanfront town","cat":"water_beach","q":"curated"},{"text":"2 public beaches in town","cat":"water_beach","q":"measured"},{"text":"Premier vacation market (Cape / Berkshires) \u2014 strong second-home demand","cat":"second_home","q":"proxy"},{"text":"Plenty of green space \u2014 87 parks & reserves","cat":"green_culture","q":"measured"},{"text":"Growing population: +8% (2010\u201320)","cat":"population_growth","q":"measured"},{"text":"Values up 39% over the last 5 years","cat":"appreciation","q":"measured"}],"reasons_avoid":[{"text":"Typical home $707k \u2014 above your $400\u2013600k budget","cat":"budget","q":"measured"},{"text":"No MBTA rail station \u2014 car-dependent commute","cat":"transit","q":"measured"},{"text":"Not near a major-employer growth hub","cat":"employer","q":"curated"}]},"2500151440":{"cool_spots":[{"name":"Skaket Beach","cat":"Beach","lat":41.79594,"lon":-70.01613},{"name":"Nauset Beach","cat":"Beach","lat":41.78706,"lon":-69.93585},{"name":"Nauset Beach","cat":"Beach","lat":41.78764,"lon":-69.93614},{"name":"Rock Harbor Beach","cat":"Beach","lat":41.79989,"lon":-70.00854},{"name":"French Cable Station Museum","cat":"Museum","lat":41.78784,"lon":-69.98751},{"name":"French Cable Station Museum","cat":"Museum","lat":41.78785,"lon":-69.9875},{"name":"Tree's Place","cat":"Gallery","lat":41.79206,"lon":-69.98729},{"name":"Hog Island Beer Co.","cat":"Brewery","lat":41.783,"lon":-70.00078},{"name":"Nickerson State Park","cat":"Nature reserve","lat":41.79254,"lon":-70.01897},{"name":"Areys Pond Boat Yard Cr","cat":"Nature reserve","lat":41.76288,"lon":-69.98183},{"name":"Eldredge Park","cat":"Park","lat":41.78202,"lon":-69.98864},{"name":"Windmill Park","cat":"Park","lat":41.79378,"lon":-69.98373}],"reasons_buy":[{"text":"Premier vacation market (islands / outer Cape) \u2014 strong second-home demand","cat":"second_home","q":"proxy"},{"text":"Oceanfront town","cat":"water_beach","q":"curated"},{"text":"4 public beaches in town","cat":"water_beach","q":"measured"},{"text":"Rich culture \u2014 4 museums, theaters & galleries","cat":"green_culture","q":"measured"},{"text":"Plenty of green space \u2014 122 parks & reserves","cat":"green_culture","q":"measured"},{"text":"Growing population: +7% (2010\u201320)","cat":"population_growth","q":"measured"},{"text":"Values up 41% over the last 5 years","cat":"appreciation","q":"measured"},{"text":"Its strongest factor: vacation / second-home demand (100/100)","cat":"second_home","q":"proxy"}],"reasons_avoid":[{"text":"Typical home $1.07M \u2014 above your $400\u2013600k budget","cat":"budget","q":"measured"},{"text":"No MBTA rail station \u2014 car-dependent commute","cat":"transit","q":"measured"},{"text":"Among the priciest in MA (~79% over the median)","cat":"budget","q":"measured"},{"text":"Far from major universities (nearest Bridgewater State University, 54 mi)","cat":"universities","q":"measured"},{"text":"Not near a major-employer growth hub","cat":"employer","q":"curated"}]},"2500155500":{"cool_spots":[{"name":"Herring Cove Beach","cat":"Beach","lat":42.04354,"lon":-70.21696},{"name":"Town Beach","cat":"Beach","lat":42.0569,"lon":-70.16544},{"name":"Race Point Beach","cat":"Beach","lat":42.06727,"lon":-70.23209},{"name":"Herring Cove Beach","cat":"Beach","lat":42.04744,"lon":-70.22167},{"name":"Boys Beach","cat":"Beach","lat":42.03602,"lon":-70.21211},{"name":"Ryder Street Beach","cat":"Beach","lat":42.05018,"lon":-70.18658},{"name":"Town Beach","cat":"Beach","lat":42.04154,"lon":-70.19337},{"name":"Provincetown Museum","cat":"Museum","lat":42.05252,"lon":-70.18918},{"name":"Old Harbor Life Saving Museum","cat":"Museum","lat":42.08003,"lon":-70.21639},{"name":"The Provincetown Theater","cat":"Theater","lat":42.05905,"lon":-70.17577},{"name":"Art House Theater","cat":"Theater","lat":42.04959,"lon":-70.189},{"name":"Fine Arts Work Center","cat":"Arts center","lat":42.05552,"lon":-70.18448}],"reasons_buy":[{"text":"Premier vacation market (islands / outer Cape) \u2014 strong second-home demand","cat":"second_home","q":"proxy"},{"text":"Oceanfront town","cat":"water_beach","q":"curated"},{"text":"Fast in-migration: population +25% (2010\u201320), top 2% statewide","cat":"population_growth","q":"measured"},{"text":"7 public beaches in town","cat":"water_beach","q":"measured"},{"text":"Rich culture \u2014 42 museums, theaters & galleries","cat":"green_culture","q":"measured"},{"text":"Strong track record \u2014 values up 45% in 5 years","cat":"appreciation","q":"measured"},{"text":"Plenty of green space \u2014 26 parks & reserves","cat":"green_culture","q":"measured"},{"text":"Lively local scene \u2014 12 caf\u00e9s","cat":"trendy","q":"measured"},{"text":"Its strongest factor: vacation / second-home demand (100/100)","cat":"second_home","q":"proxy"}],"reasons_avoid":[{"text":"Typical home $1.07M \u2014 above your $400\u2013600k budget","cat":"budget","q":"measured"},{"text":"No MBTA rail station \u2014 car-dependent commute","cat":"transit","q":"measured"},{"text":"Among the priciest in MA (~78% over the median)","cat":"budget","q":"measured"},{"text":"Far from major universities (nearest Bridgewater State University, 40 mi)","cat":"universities","q":"measured"},{"text":"Not near a major-employer growth hub","cat":"employer","q":"curated"}]},"2500159735":{"cool_spots":[{"name":"Springhill Beach","cat":"Beach","lat":41.75566,"lon":-70.45308},{"name":"East Sandwich Beach","cat":"Beach","lat":41.75427,"lon":-70.44753},{"name":"Scorton Neck Beach","cat":"Beach","lat":41.74039,"lon":-70.39114},{"name":"Springhill Brook","cat":"Beach","lat":41.764,"lon":-70.47503},{"name":"Sandwich Beach","cat":"Beach","lat":41.70718,"lon":-70.45482},{"name":"Camp Burgess Waterfront","cat":"Beach","lat":41.69918,"lon":-70.45563},{"name":"Triangle Beach","cat":"Beach","lat":41.69759,"lon":-70.45463},{"name":"Wakeby lake at Ryder Conservation Beach","cat":"Beach","lat":41.66811,"lon":-70.47978},{"name":"Town Neck Beach","cat":"Beach","lat":41.76959,"lon":-70.48635},{"name":"Peters Pond at Oakcrest Cove Beach","cat":"Beach","lat":41.69441,"lon":-70.48901},{"name":"Snake Pond Beach","cat":"Beach","lat":41.67914,"lon":-70.51859},{"name":"Benjamin Nye Homestead and Museum","cat":"Museum","lat":41.72864,"lon":-70.43148}],"reasons_buy":[{"text":"Rich culture \u2014 5 museums, theaters & galleries","cat":"green_culture","q":"measured"},{"text":"Plenty of green space \u2014 54 parks & reserves","cat":"green_culture","q":"measured"},{"text":"Oceanfront town","cat":"water_beach","q":"curated"},{"text":"Premier vacation market (Cape / Berkshires) \u2014 strong second-home demand","cat":"second_home","q":"proxy"},{"text":"11 public beaches in town","cat":"water_beach","q":"measured"},{"text":"Values up 43% over the last 5 years","cat":"appreciation","q":"measured"},{"text":"Lively local scene \u2014 6 caf\u00e9s","cat":"trendy","q":"measured"}],"reasons_avoid":[{"text":"Population is shrinking (-2% 2010\u201320)","cat":"population_growth","q":"measured"},{"text":"Typical home $689k \u2014 above your $400\u2013600k budget","cat":"budget","q":"measured"},{"text":"No MBTA rail station \u2014 car-dependent commute","cat":"transit","q":"measured"},{"text":"Not near a major-employer growth hub","cat":"employer","q":"curated"}]},"2500170605":{"cool_spots":[{"name":"Highland Beach","cat":"Beach","lat":42.04788,"lon":-70.07114},{"name":"Longnook Beach","cat":"Beach","lat":42.02094,"lon":-70.03697},{"name":"Fisher Beach","cat":"Beach","lat":41.98427,"lon":-70.07725},{"name":"Ryder Beach","cat":"Beach","lat":41.96372,"lon":-70.07697},{"name":"Brush Valley","cat":"Beach","lat":41.99442,"lon":-70.01662},{"name":"Ballston Beach","cat":"Beach","lat":42.0006,"lon":-70.02086},{"name":"Highland/Cape Cod Light","cat":"Museum","lat":42.03922,"lon":-70.06209},{"name":"Highland House Museum","cat":"Museum","lat":42.03887,"lon":-70.06486},{"name":"Payomet Performing Arts Center","cat":"Arts center","lat":42.03129,"lon":-70.05589},{"name":"Cronin Beach","cat":"Nature reserve","lat":42.0448,"lon":-70.10953},{"name":"High Head","cat":"Nature reserve","lat":42.04739,"lon":-70.10974},{"name":"Snows Field","cat":"Park","lat":42.00069,"lon":-70.05877}],"reasons_buy":[{"text":"Premier vacation market (islands / outer Cape) \u2014 strong second-home demand","cat":"second_home","q":"proxy"},{"text":"Oceanfront town","cat":"water_beach","q":"curated"},{"text":"Fast in-migration: population +23% (2010\u201320), top 3% statewide","cat":"population_growth","q":"measured"},{"text":"6 public beaches in town","cat":"water_beach","q":"measured"},{"text":"Values up 42% over the last 5 years","cat":"appreciation","q":"measured"},{"text":"Plenty of green space \u2014 17 parks & reserves","cat":"green_culture","q":"measured"},{"text":"Its strongest factor: vacation / second-home demand (100/100)","cat":"second_home","q":"proxy"}],"reasons_avoid":[{"text":"Typical home $1.04M \u2014 above your $400\u2013600k budget","cat":"budget","q":"measured"},{"text":"No MBTA rail station \u2014 car-dependent commute","cat":"transit","q":"measured"},{"text":"Among the priciest in MA (~74% over the median)","cat":"budget","q":"measured"},{"text":"Far from major universities (nearest Bridgewater State University, 46 mi)","cat":"universities","q":"measured"},{"text":"Not near a major-employer growth hub","cat":"employer","q":"curated"}]},"2500174385":{"cool_spots":[{"name":"Duck Harbor Beach","cat":"Beach","lat":41.94344,"lon":-70.07641},{"name":"Mayo Beach","cat":"Beach","lat":41.93011,"lon":-70.04113},{"name":"Marconi Beach","cat":"Beach","lat":41.89106,"lon":-69.96142},{"name":"White Crest Beach","cat":"Beach","lat":41.9344,"lon":-69.97895},{"name":"Cahoon Hollow Beach","cat":"Beach","lat":41.94557,"lon":-69.98465},{"name":"Newcomb Hollow Beach","cat":"Beach","lat":41.96126,"lon":-69.99347},{"name":"Gull Pond Beach","cat":"Beach","lat":41.95547,"lon":-70.0119},{"name":"Long Pond Beach","cat":"Beach","lat":41.94519,"lon":-70.01141},{"name":"Powers Landing","cat":"Beach","lat":41.92976,"lon":-70.04863},{"name":"Lecount Hollow Beach","cat":"Beach","lat":41.92291,"lon":-69.97437},{"name":"Great Pond Beach","cat":"Beach","lat":41.93832,"lon":-70.00052},{"name":"Wellfleet Historical Society Museum","cat":"Museum","lat":41.9385,"lon":-70.0301}],"reasons_buy":[{"text":"Premier vacation market (islands / outer Cape) \u2014 strong second-home demand","cat":"second_home","q":"proxy"},{"text":"Oceanfront town","cat":"water_beach","q":"curated"},{"text":"Fast in-migration: population +30% (2010\u201320), top 1% statewide","cat":"population_growth","q":"measured"},{"text":"11 public beaches in town","cat":"water_beach","q":"measured"},{"text":"Plenty of green space \u2014 67 parks & reserves","cat":"green_culture","q":"measured"},{"text":"Values up 43% over the last 5 years","cat":"appreciation","q":"measured"},{"text":"Its strongest factor: vacation / second-home demand (100/100)","cat":"second_home","q":"proxy"}],"reasons_avoid":[{"text":"Typical home $933k \u2014 above your $400\u2013600k budget","cat":"budget","q":"measured"},{"text":"No MBTA rail station \u2014 car-dependent commute","cat":"transit","q":"measured"},{"text":"Far from major universities (nearest Bridgewater State University, 49 mi)","cat":"universities","q":"measured"},{"text":"Not near a major-employer growth hub","cat":"employer","q":"curated"}]},"2500182525":{"cool_spots":[{"name":"Thachers Beach","cat":"Beach","lat":41.6382,"lon":-70.21708},{"name":"Bass River Beach","cat":"Beach","lat":41.64372,"lon":-70.19919},{"name":"Salt Box Beach","cat":"Beach","lat":41.67844,"lon":-70.1703},{"name":"Englewood Beach","cat":"Beach","lat":41.64088,"lon":-70.24518},{"name":"Seagull Beach","cat":"Beach","lat":41.6347,"lon":-70.22497},{"name":"Bay View Street Beach","cat":"Beach","lat":41.64648,"lon":-70.27106},{"name":"Grays Beach","cat":"Beach","lat":41.72329,"lon":-70.235},{"name":"Swan Lake Association Beach","cat":"Beach","lat":41.65937,"lon":-70.21647},{"name":"Plashes Pond","cat":"Beach","lat":41.66736,"lon":-70.22255},{"name":"Flax Pond","cat":"Beach","lat":41.6836,"lon":-70.18525},{"name":"Whydah Pirate Museum","cat":"Museum","lat":41.65011,"lon":-70.22496},{"name":"Edward Gorey House","cat":"Museum","lat":41.7054,"lon":-70.24252}],"reasons_buy":[{"text":"Oceanfront town","cat":"water_beach","q":"curated"},{"text":"10 public beaches in town","cat":"water_beach","q":"measured"},{"text":"Premier vacation market (Cape / Berkshires) \u2014 strong second-home demand","cat":"second_home","q":"proxy"},{"text":"Plenty of green space \u2014 60 parks & reserves","cat":"green_culture","q":"measured"},{"text":"Strong public schools (4/5)","cat":"schools","q":"curated"},{"text":"Walkable town center (~1,036/sq mi)","cat":"walkability","q":"proxy"},{"text":"Values up 38% over the last 5 years","cat":"appreciation","q":"measured"},{"text":"Growing population: +5% (2010\u201320)","cat":"population_growth","q":"measured"}],"reasons_avoid":[{"text":"Typical home $604k \u2014 above your $400\u2013600k budget","cat":"budget","q":"measured"},{"text":"No MBTA rail station \u2014 car-dependent commute","cat":"transit","q":"measured"},{"text":"Far from major universities (nearest UMass Dartmouth, 40 mi)","cat":"universities","q":"measured"},{"text":"Not near a major-employer growth hub","cat":"employer","q":"curated"}]},"2500300555":{"cool_spots":[{"name":"Susan B. Anthony Birthplace Museum","cat":"Museum","lat":42.61546,"lon":-73.10234},{"name":"Albert Reid Field","cat":"Park","lat":42.63152,"lon":-73.11175},{"name":"Liberty Street Field","cat":"Park","lat":42.61779,"lon":-73.12001},{"name":"Robinson's Point","cat":"Scenic view","lat":42.64535,"lon":-73.16516},{"name":"Fitch Overlook","cat":"Scenic view","lat":42.65501,"lon":-73.16751},{"name":"Massachusetts Veterans War Memorial Tower","cat":"Historic site","lat":42.63726,"lon":-73.16599},{"name":"Dragon","cat":"Historic site","lat":42.63565,"lon":-73.15298},{"name":"Bounti-Fare Restaurant","cat":"Restaurant","lat":42.65688,"lon":-73.11009},{"name":"Angelina's Subs","cat":"Restaurant","lat":42.62842,"lon":-73.1163}],"reasons_buy":[{"text":"Under budget at $263k \u2014 room to invest or upgrade","cat":"budget","q":"measured"},{"text":"Strong track record \u2014 values up 51% in 5 years","cat":"appreciation","q":"measured"},{"text":"~56% below the MA median ($600k) \u2014 value entry","cat":"appreciation","q":"measured"},{"text":"Hot lately \u2014 up 24% in the last 3 years","cat":"trendy","q":"proxy"},{"text":"Its strongest factor: trendy / young-buyer demand (66/100)","cat":"trendy","q":"proxy"}],"reasons_avoid":[{"text":"Population is shrinking (-4% 2010\u201320)","cat":"population_growth","q":"measured"},{"text":"No MBTA rail station \u2014 car-dependent commute","cat":"transit","q":"measured"},{"text":"Little vacation / second-home demand","cat":"second_home","q":"proxy"},{"text":"Landlocked \u2014 no beach or notable water frontage","cat":"water_beach","q":"measured"},{"text":"Not near a major-employer growth hub","cat":"employer","q":"curated"}]},"2500300975":{"cool_spots":[{"name":"Hardy Parcel","cat":"Nature reserve","lat":42.24795,"lon":-73.41039},{"name":"Alford Wildlife Sanctuary","cat":"Nature reserve","lat":42.21619,"lon":-73.44057},{"name":"Botham Park","cat":"Park","lat":42.23624,"lon":-73.41337},{"name":"view east","cat":"Scenic view","lat":42.27514,"lon":-73.43028},{"name":"clear cut view north","cat":"Scenic view","lat":42.26429,"lon":-73.44031}],"reasons_buy":[{"text":"Values up 40% over the last 5 years","cat":"appreciation","q":"measured"},{"text":"Its strongest factor: school quality & trend (60/100)","cat":"schools","q":"curated"}],"reasons_avoid":[{"text":"Car-dependent, low density (~42/sq mi)","cat":"walkability","q":"proxy"},{"text":"Population is shrinking (-2% 2010\u201320)","cat":"population_growth","q":"measured"},{"text":"Typical home $776k \u2014 above your $400\u2013600k budget","cat":"budget","q":"measured"},{"text":"No MBTA rail station \u2014 car-dependent commute","cat":"transit","q":"measured"},{"text":"Little vacation / second-home demand","cat":"second_home","q":"proxy"},{"text":"Landlocked \u2014 no beach or notable water frontage","cat":"water_beach","q":"measured"},{"text":"Not near a major-employer growth hub","cat":"employer","q":"curated"}]},"2500304545":{"cool_spots":[{"name":"Iroquis Waterfront","cat":"Beach","lat":42.29541,"lon":-73.07614},{"name":"Becket Arts Center","cat":"Arts center","lat":42.33096,"lon":-73.08472},{"name":"Conservation Land","cat":"Nature reserve","lat":42.33477,"lon":-73.10359},{"name":"Conservation Land","cat":"Nature reserve","lat":42.29692,"lon":-73.05958},{"name":"Becket Historic Quarry and Forest trailhead","cat":"Park","lat":42.25137,"lon":-73.02009},{"name":"Derrick Site","cat":"Scenic view","lat":42.24447,"lon":-73.01721},{"name":"Becket Center Historic District","cat":"Attraction","lat":42.28481,"lon":-73.07094}],"reasons_buy":[{"text":"Under budget at $394k \u2014 room to invest or upgrade","cat":"budget","q":"measured"},{"text":"Premier vacation market (Cape / Berkshires) \u2014 strong second-home demand","cat":"second_home","q":"proxy"},{"text":"Fast in-migration: population +9% (2010\u201320), top 25% statewide","cat":"population_growth","q":"measured"},{"text":"~34% below the MA median ($600k) \u2014 value entry","cat":"appreciation","q":"measured"},{"text":"Hot lately \u2014 up 21% in the last 3 years","cat":"trendy","q":"proxy"},{"text":"Values up 45% over the last 5 years","cat":"appreciation","q":"measured"},{"text":"1 public beach in town","cat":"water_beach","q":"measured"},{"text":"Its strongest factor: vacation / second-home demand (80/100)","cat":"second_home","q":"proxy"}],"reasons_avoid":[{"text":"Car-dependent, low density (~42/sq mi)","cat":"walkability","q":"proxy"},{"text":"No MBTA rail station \u2014 car-dependent commute","cat":"transit","q":"measured"},{"text":"Not near a major-employer growth hub","cat":"employer","q":"curated"}]},"2500313345":{"cool_spots":[{"name":"Appalachian Trail Corridor","cat":"Nature reserve","lat":42.5708,"lon":-73.16044},{"name":"Stafford Hill Memorial","cat":"Park","lat":42.57442,"lon":-73.11465},{"name":"Stafford Hill Memorial","cat":"Historic site","lat":42.57451,"lon":-73.1154},{"name":"Daniel Petithory Memorial","cat":"Historic site","lat":42.5625,"lon":-73.15649},{"name":"Common Table Food & Drink","cat":"Restaurant","lat":42.55473,"lon":-73.1653}],"reasons_buy":[{"text":"Under budget at $355k \u2014 room to invest or upgrade","cat":"budget","q":"measured"},{"text":"~41% below the MA median ($600k) \u2014 value entry","cat":"appreciation","q":"measured"},{"text":"Values up 43% over the last 5 years","cat":"appreciation","q":"measured"},{"text":"Its strongest factor: school quality & trend (60/100)","cat":"schools","q":"curated"}],"reasons_avoid":[{"text":"No MBTA rail station \u2014 car-dependent commute","cat":"transit","q":"measured"},{"text":"Population nearly flat (+1% 2010\u201320)","cat":"population_growth","q":"measured"},{"text":"Few cultural venues or parks mapped here","cat":"green_culture","q":"measured"},{"text":"Little vacation / second-home demand","cat":"second_home","q":"proxy"},{"text":"Not near a major-employer growth hub","cat":"employer","q":"curated"}]},"2500314010":{"cool_spots":[{"name":"Clarksburg State Park","cat":"Nature reserve","lat":42.73563,"lon":-73.08149},{"name":"Hairpin Turn","cat":"Scenic view","lat":42.70937,"lon":-73.06297},{"name":"Hot Point","cat":"Scenic view","lat":42.7115,"lon":-73.06066},{"name":"The Golden Eagle Restaurant","cat":"Restaurant","lat":42.7094,"lon":-73.06265}],"reasons_buy":[{"text":"Under budget at $271k \u2014 room to invest or upgrade","cat":"budget","q":"measured"},{"text":"~55% below the MA median ($600k) \u2014 value entry","cat":"appreciation","q":"measured"},{"text":"Values up 37% over the last 5 years","cat":"appreciation","q":"measured"},{"text":"Next to Williams College (5 mi) \u2014 steady rental demand","cat":"universities","q":"measured"},{"text":"Its strongest factor: school quality & trend (60/100)","cat":"schools","q":"curated"}],"reasons_avoid":[{"text":"Population is shrinking (-3% 2010\u201320)","cat":"population_growth","q":"measured"},{"text":"No MBTA rail station \u2014 car-dependent commute","cat":"transit","q":"measured"},{"text":"Few cultural venues or parks mapped here","cat":"green_culture","q":"measured"},{"text":"Little vacation / second-home demand","cat":"second_home","q":"proxy"},{"text":"Landlocked \u2014 no beach or notable water frontage","cat":"water_beach","q":"measured"},{"text":"Not near a major-employer growth hub","cat":"employer","q":"curated"}]},"2500316180":{"cool_spots":[{"name":"Crane Museum of Papermaking","cat":"Museum","lat":42.46966,"lon":-73.17749},{"name":"Old Mill Trail","cat":"Nature reserve","lat":42.45879,"lon":-73.13399},{"name":"Chamberlain Park","cat":"Park","lat":42.47237,"lon":-73.15317},{"name":"Greenridge Park","cat":"Park","lat":42.45278,"lon":-73.18546},{"name":"The Dalton Bakery","cat":"Cafe","lat":42.47352,"lon":-73.17221},{"name":"Juice n' Java","cat":"Cafe","lat":42.47342,"lon":-73.16251},{"name":"Angelina's Sub Shop","cat":"Restaurant","lat":42.47341,"lon":-73.16262},{"name":"Hot Harry's Fresh Burritos","cat":"Restaurant","lat":42.4735,"lon":-73.17195}],"reasons_buy":[{"text":"Under budget at $344k \u2014 room to invest or upgrade","cat":"budget","q":"measured"},{"text":"~43% below the MA median ($600k) \u2014 value entry","cat":"appreciation","q":"measured"},{"text":"Values up 40% over the last 5 years","cat":"appreciation","q":"measured"},{"text":"Its strongest factor: school quality & trend (60/100)","cat":"schools","q":"curated"}],"reasons_avoid":[{"text":"Population is shrinking (-6% 2010\u201320)","cat":"population_growth","q":"measured"},{"text":"No MBTA rail station \u2014 car-dependent commute","cat":"transit","q":"measured"},{"text":"Little vacation / second-home demand","cat":"second_home","q":"proxy"},{"text":"Landlocked \u2014 no beach or notable water frontage","cat":"water_beach","q":"measured"},{"text":"Not near a major-employer growth hub","cat":"employer","q":"curated"}]},"2500321360":{"cool_spots":[{"name":"Egremont Wildlife Refuge","cat":"Nature reserve","lat":42.21501,"lon":-73.44153},{"name":"Green River Access","cat":"Nature reserve","lat":42.20948,"lon":-73.44034},{"name":"Town Park","cat":"Park","lat":42.16128,"lon":-73.41516},{"name":"French Park","cat":"Park","lat":42.19101,"lon":-73.44472},{"name":"The Old Mill","cat":"Restaurant","lat":42.16054,"lon":-73.41701},{"name":"The Egremont Village Inn","cat":"Restaurant","lat":42.16292,"lon":-73.41129}],"reasons_buy":[{"text":"Fast in-migration: population +12% (2010\u201320), top 12% statewide","cat":"population_growth","q":"measured"},{"text":"Premier vacation market (Cape / Berkshires) \u2014 strong second-home demand","cat":"second_home","q":"proxy"},{"text":"Strong track record \u2014 values up 45% in 5 years","cat":"appreciation","q":"measured"},{"text":"Its strongest factor: population growth / in-migration (88/100)","cat":"population_growth","q":"measured"}],"reasons_avoid":[{"text":"Car-dependent, low density (~73/sq mi)","cat":"walkability","q":"proxy"},{"text":"Typical home $793k \u2014 above your $400\u2013600k budget","cat":"budget","q":"measured"},{"text":"No MBTA rail station \u2014 car-dependent commute","cat":"transit","q":"measured"},{"text":"Far from major universities (nearest Westfield State University, 35 mi)","cat":"universities","q":"measured"},{"text":"Landlocked \u2014 no beach or notable water frontage","cat":"water_beach","q":"measured"},{"text":"Not near a major-employer growth hub","cat":"employer","q":"curated"}]},"2500324120":{"cool_spots":[{"name":"Reed Brook Preserve","cat":"Nature reserve","lat":42.66391,"lon":-72.99366},{"name":"Florida State Forest","cat":"Nature reserve","lat":42.71461,"lon":-73.04957},{"name":"Trail Head Picnic Area","cat":"Park","lat":42.70344,"lon":-72.95026},{"name":"Raycroft Outlook","cat":"Scenic view","lat":42.68886,"lon":-72.98143},{"name":"Plow","cat":"Historic site","lat":42.66596,"lon":-73.01008},{"name":"Hoosac Tunnel East Test Portal","cat":"Historic site","lat":42.675,"lon":-72.99717}],"reasons_buy":[{"text":"Under budget at $278k \u2014 room to invest or upgrade","cat":"budget","q":"measured"},{"text":"~54% below the MA median ($600k) \u2014 value entry","cat":"appreciation","q":"measured"},{"text":"Hot lately \u2014 up 18% in the last 3 years","cat":"trendy","q":"proxy"},{"text":"Values up 36% over the last 5 years","cat":"appreciation","q":"measured"},{"text":"Its strongest factor: school quality & trend (60/100)","cat":"schools","q":"curated"}],"reasons_avoid":[{"text":"Population is shrinking (-8% 2010\u201320)","cat":"population_growth","q":"measured"},{"text":"Car-dependent, low density (~28/sq mi)","cat":"walkability","q":"proxy"},{"text":"No MBTA rail station \u2014 car-dependent commute","cat":"transit","q":"measured"},{"text":"Few cultural venues or parks mapped here","cat":"green_culture","q":"measured"},{"text":"Little vacation / second-home demand","cat":"second_home","q":"proxy"},{"text":"Landlocked \u2014 no beach or notable water frontage","cat":"water_beach","q":"measured"},{"text":"Not near a major-employer growth hub","cat":"employer","q":"curated"}]},"2500326815":{"cool_spots":[{"name":"Mahaiwe Performing Arts Center","cat":"Theater","lat":42.1942,"lon":-73.36355},{"name":"Community Access to the Arts","cat":"Arts center","lat":42.21329,"lon":-73.34413},{"name":"Monument Mountain","cat":"Nature reserve","lat":42.23849,"lon":-73.33923},{"name":"Root Property","cat":"Nature reserve","lat":42.23431,"lon":-73.34529},{"name":"Newsboy Park","cat":"Park","lat":42.18383,"lon":-73.37031},{"name":"Fountain Pond Park","cat":"Park","lat":42.23669,"lon":-73.3342},{"name":"SRIT The Forest for the Trees","cat":"Scenic view","lat":42.21025,"lon":-73.37535},{"name":"SRIT Back to Civilization?","cat":"Scenic view","lat":42.20734,"lon":-73.37902},{"name":"Orchard City Millage Sign","cat":"Attraction","lat":42.20269,"lon":-73.37887},{"name":"Searles Castle","cat":"Attraction","lat":42.19169,"lon":-73.36331},{"name":"Fuel Coffee Shop","cat":"Cafe","lat":42.19427,"lon":-73.36224},{"name":"Lenox Patisserie & Cafe","cat":"Cafe","lat":42.19399,"lon":-73.3624}],"reasons_buy":[{"text":"Premier vacation market (islands / outer Cape) \u2014 strong second-home demand","cat":"second_home","q":"proxy"},{"text":"Typical home $589k \u2014 right in your $400\u2013600k budget","cat":"budget","q":"measured"},{"text":"Plenty of green space \u2014 32 parks & reserves","cat":"green_culture","q":"measured"},{"text":"Values up 40% over the last 5 years","cat":"appreciation","q":"measured"},{"text":"Lively local scene \u2014 6 caf\u00e9s","cat":"trendy","q":"measured"},{"text":"Its strongest factor: vacation / second-home demand (100/100)","cat":"second_home","q":"proxy"}],"reasons_avoid":[{"text":"No MBTA rail station \u2014 car-dependent commute","cat":"transit","q":"measured"},{"text":"Population nearly flat (+1% 2010\u201320)","cat":"population_growth","q":"measured"},{"text":"Not near a major-employer growth hub","cat":"employer","q":"curated"}]},"2500328180":{"cool_spots":[{"name":"Hancock Shaker Village","cat":"Museum","lat":42.42824,"lon":-73.33823},{"name":"Pittsfield State Forest","cat":"Nature reserve","lat":42.43915,"lon":-73.33849},{"name":"Bates Memorial State Park","cat":"Nature reserve","lat":42.4315,"lon":-73.36997},{"name":"view east","cat":"Scenic view","lat":42.4688,"lon":-73.33855},{"name":"Mountain Coaster","cat":"Attraction","lat":42.55482,"lon":-73.29147},{"name":"Bimi's","cat":"Cafe","lat":42.43051,"lon":-73.33922},{"name":"Christiansen's Tavern","cat":"Restaurant","lat":42.55517,"lon":-73.29044}],"reasons_buy":[{"text":"Under budget at $378k \u2014 room to invest or upgrade","cat":"budget","q":"measured"},{"text":"Premier vacation market (Cape / Berkshires) \u2014 strong second-home demand","cat":"second_home","q":"proxy"},{"text":"~37% below the MA median ($600k) \u2014 value entry","cat":"appreciation","q":"measured"},{"text":"Values up 38% over the last 5 years","cat":"appreciation","q":"measured"},{"text":"Growing population: +6% (2010\u201320)","cat":"population_growth","q":"measured"},{"text":"Its strongest factor: vacation / second-home demand (80/100)","cat":"second_home","q":"proxy"}],"reasons_avoid":[{"text":"Car-dependent, low density (~21/sq mi)","cat":"walkability","q":"proxy"},{"text":"No MBTA rail station \u2014 car-dependent commute","cat":"transit","q":"measured"},{"text":"Landlocked \u2014 no beach or notable water frontage","cat":"water_beach","q":"measured"},{"text":"Not near a major-employer growth hub","cat":"employer","q":"curated"}]},"2500330315":{"cool_spots":[{"name":"Hinsdale Flats Wildlife Management Area","cat":"Nature reserve","lat":42.4126,"lon":-73.10231},{"name":"Hinsdale Flats Wildlife Management Area","cat":"Nature reserve","lat":42.40539,"lon":-73.11774},{"name":"Ml Ransford Athletic Field","cat":"Park","lat":42.43497,"lon":-73.1175},{"name":"amphitheatre","cat":"Park","lat":42.44541,"lon":-73.07792},{"name":"Ozzie's","cat":"Restaurant","lat":42.43809,"lon":-73.12508}],"reasons_buy":[{"text":"Under budget at $377k \u2014 room to invest or upgrade","cat":"budget","q":"measured"},{"text":"~37% below the MA median ($600k) \u2014 value entry","cat":"appreciation","q":"measured"},{"text":"Values up 36% over the last 5 years","cat":"appreciation","q":"measured"},{"text":"Plenty of green space \u2014 14 parks & reserves","cat":"green_culture","q":"measured"},{"text":"Its strongest factor: school quality & trend (60/100)","cat":"schools","q":"curated"}],"reasons_avoid":[{"text":"Population is shrinking (-6% 2010\u201320)","cat":"population_growth","q":"measured"},{"text":"Car-dependent, low density (~93/sq mi)","cat":"walkability","q":"proxy"},{"text":"No MBTA rail station \u2014 car-dependent commute","cat":"transit","q":"measured"},{"text":"Little vacation / second-home demand","cat":"second_home","q":"proxy"},{"text":"Not near a major-employer growth hub","cat":"employer","q":"curated"}]},"2500334340":{"cool_spots":[{"name":"Widow White","cat":"Nature reserve","lat":42.54957,"lon":-73.26175},{"name":"Barton's Ledge Wildlife Management Area","cat":"Nature reserve","lat":42.57351,"lon":-73.24049},{"name":"Bill Laston Memorial Field","cat":"Park","lat":42.52955,"lon":-73.23074},{"name":"Memorial Park","cat":"Park","lat":42.50109,"lon":-73.25373},{"name":"Barton's Ledge view","cat":"Scenic view","lat":42.57108,"lon":-73.24158},{"name":"Coyote Den","cat":"Restaurant","lat":42.51265,"lon":-73.22952},{"name":"Bob's Country Kitchen","cat":"Restaurant","lat":42.51611,"lon":-73.2281},{"name":"Coyote Den","cat":"Bar","lat":42.51248,"lon":-73.2296}],"reasons_buy":[{"text":"Under budget at $361k \u2014 room to invest or upgrade","cat":"budget","q":"measured"},{"text":"~40% below the MA median ($600k) \u2014 value entry","cat":"appreciation","q":"measured"},{"text":"Values up 43% over the last 5 years","cat":"appreciation","q":"measured"},{"text":"Its strongest factor: school quality & trend (60/100)","cat":"schools","q":"curated"}],"reasons_avoid":[{"text":"Population is shrinking (-2% 2010\u201320)","cat":"population_growth","q":"measured"},{"text":"Car-dependent, low density (~105/sq mi)","cat":"walkability","q":"proxy"},{"text":"No MBTA rail station \u2014 car-dependent commute","cat":"transit","q":"measured"},{"text":"Little vacation / second-home demand","cat":"second_home","q":"proxy"},{"text":"Not near a major-employer growth hub","cat":"employer","q":"curated"}]},"2500334655":{"cool_spots":[{"name":"Housatonic Fishing Access, Berkshire Natural Resources Council (BNRC)","cat":"Nature reserve","lat":42.28403,"lon":-73.24224},{"name":"Longcope Property","cat":"Nature reserve","lat":42.28792,"lon":-73.27736},{"name":"Athletic Field","cat":"Park","lat":42.30141,"lon":-73.24532},{"name":"Dunn Park","cat":"Park","lat":42.30039,"lon":-73.27752},{"name":"Dam Overlook Observation Platform","cat":"Scenic view","lat":42.30192,"lon":-73.16905},{"name":"Starving Artist Cafe","cat":"Cafe","lat":42.30533,"lon":-73.24917},{"name":"Lee's Corner Kitchen","cat":"Restaurant","lat":42.30996,"lon":-73.25295},{"name":"Salmon Run Fish House","cat":"Restaurant","lat":42.30598,"lon":-73.24947}],"reasons_buy":[{"text":"Typical home $417k \u2014 right in your $400\u2013600k budget","cat":"budget","q":"measured"},{"text":"Premier vacation market (Cape / Berkshires) \u2014 strong second-home demand","cat":"second_home","q":"proxy"},{"text":"~30% below the MA median ($600k) \u2014 value entry","cat":"appreciation","q":"measured"},{"text":"Values up 41% over the last 5 years","cat":"appreciation","q":"measured"},{"text":"Plenty of green space \u2014 21 parks & reserves","cat":"green_culture","q":"measured"},{"text":"Its strongest factor: vacation / second-home demand (80/100)","cat":"second_home","q":"proxy"}],"reasons_avoid":[{"text":"Population is shrinking (-3% 2010\u201320)","cat":"population_growth","q":"measured"},{"text":"No MBTA rail station \u2014 car-dependent commute","cat":"transit","q":"measured"},{"text":"Not near a major-employer growth hub","cat":"employer","q":"curated"}]},"2500334970":{"cool_spots":[{"name":"Blacksmith Museum","cat":"Museum","lat":42.35925,"lon":-73.28094},{"name":"The Mount","cat":"Museum","lat":42.33101,"lon":-73.28202},{"name":"West Street Theater","cat":"Theater","lat":42.35595,"lon":-73.29234},{"name":"Berkshire Performing Arts Center","cat":"Arts center","lat":42.35342,"lon":-73.28205},{"name":"Lenox Community Center","cat":"Arts center","lat":42.35572,"lon":-73.2819},{"name":"Parsons Marsh Conservation Area","cat":"Nature reserve","lat":42.35925,"lon":-73.30119},{"name":"George L. Darey Housatonic Valley Wildlife Management Area","cat":"Nature reserve","lat":42.40198,"lon":-73.23902},{"name":"Tilloston Park","cat":"Park","lat":42.33437,"lon":-73.24723},{"name":"Triangle Park","cat":"Park","lat":42.35975,"lon":-73.28402},{"name":"view to west","cat":"Scenic view","lat":42.36968,"lon":-73.2855},{"name":"Kennedy Cliffs","cat":"Scenic view","lat":42.36568,"lon":-73.31207},{"name":"Lenox Library","cat":"Historic site","lat":42.35729,"lon":-73.2843}],"reasons_buy":[{"text":"Premier vacation market (islands / outer Cape) \u2014 strong second-home demand","cat":"second_home","q":"proxy"},{"text":"Typical home $585k \u2014 right in your $400\u2013600k budget","cat":"budget","q":"measured"},{"text":"Strong track record \u2014 values up 46% in 5 years","cat":"appreciation","q":"measured"},{"text":"Rich culture \u2014 5 museums, theaters & galleries","cat":"green_culture","q":"measured"},{"text":"Plenty of green space \u2014 26 parks & reserves","cat":"green_culture","q":"measured"},{"text":"Its strongest factor: vacation / second-home demand (100/100)","cat":"second_home","q":"proxy"}],"reasons_avoid":[{"text":"No MBTA rail station \u2014 car-dependent commute","cat":"transit","q":"measured"},{"text":"Population nearly flat (+1% 2010\u201320)","cat":"population_growth","q":"measured"},{"text":"Not near a major-employer growth hub","cat":"employer","q":"curated"}]},"2500342460":{"cool_spots":[{"name":"Bidwell House Museum","cat":"Museum","lat":42.20843,"lon":-73.21837},{"name":"Horse Barn Exhibits","cat":"Museum","lat":42.20815,"lon":-73.21828},{"name":"Fawyer Reserve, Berkshire Natural Resources Council (BNRC)","cat":"Nature reserve","lat":42.1702,"lon":-73.18876},{"name":"Swan-Dunlop Reserve, Berkshire Natural Resource Council (BNRC)","cat":"Nature reserve","lat":42.17948,"lon":-73.20823},{"name":"Bidwell Park","cat":"Park","lat":42.17859,"lon":-73.21337},{"name":"The Steps (The Ledges)","cat":"Scenic view","lat":42.20244,"lon":-73.27647},{"name":"Monterey Cobbles","cat":"Scenic view","lat":42.18571,"lon":-73.18267},{"name":"Charcoal Hearth - 19th century","cat":"Historic site","lat":42.2139,"lon":-73.21584},{"name":"ca 1750s Cellar Hole of Rev. Adonijah Bidwell","cat":"Historic site","lat":42.20766,"lon":-73.22123},{"name":"Roadside Store & Caf\u00e9","cat":"Restaurant","lat":42.18375,"lon":-73.24178},{"name":"Flower Gardens","cat":"Spot","lat":42.20829,"lon":-73.21858},{"name":"Herb Gardens","cat":"Spot","lat":42.20862,"lon":-73.2185}],"reasons_buy":[{"text":"Fast in-migration: population +14% (2010\u201320), top 7% statewide","cat":"population_growth","q":"measured"},{"text":"Premier vacation market (Cape / Berkshires) \u2014 strong second-home demand","cat":"second_home","q":"proxy"},{"text":"Rich culture \u2014 4 museums, theaters & galleries","cat":"green_culture","q":"measured"},{"text":"Plenty of green space \u2014 13 parks & reserves","cat":"green_culture","q":"measured"},{"text":"Its strongest factor: population growth / in-migration (93/100)","cat":"population_growth","q":"measured"}],"reasons_avoid":[{"text":"Car-dependent, low density (~41/sq mi)","cat":"walkability","q":"proxy"},{"text":"Typical home $710k \u2014 above your $400\u2013600k budget","cat":"budget","q":"measured"},{"text":"No MBTA rail station \u2014 car-dependent commute","cat":"transit","q":"measured"},{"text":"Quiet market \u2014 limited buzz / young-buyer pull","cat":"trendy","q":"proxy"},{"text":"Not near a major-employer growth hub","cat":"employer","q":"curated"}]},"2500343300":{"cool_spots":[{"name":"Camp Hi-Rock","cat":"Nature reserve","lat":42.07045,"lon":-73.44467},{"name":"Plaintain Pond","cat":"Nature reserve","lat":42.0837,"lon":-73.45583},{"name":"Garrett Garden and Green","cat":"Park","lat":42.09824,"lon":-73.45322},{"name":"Bash Bish Falls Viewpoint","cat":"Scenic view","lat":42.11581,"lon":-73.49404},{"name":"Pond overlook","cat":"Scenic view","lat":42.07381,"lon":-73.44954}],"reasons_buy":[{"text":"Premier vacation market (Cape / Berkshires) \u2014 strong second-home demand","cat":"second_home","q":"proxy"},{"text":"Values up 32% over the last 5 years","cat":"appreciation","q":"measured"},{"text":"Its strongest factor: vacation / second-home demand (80/100)","cat":"second_home","q":"proxy"}],"reasons_avoid":[{"text":"Car-dependent, low density (~7/sq mi)","cat":"walkability","q":"proxy"},{"text":"Population is shrinking (-4% 2010\u201320)","cat":"population_growth","q":"measured"},{"text":"Typical home $627k \u2014 above your $400\u2013600k budget","cat":"budget","q":"measured"},{"text":"No MBTA rail station \u2014 car-dependent commute","cat":"transit","q":"measured"},{"text":"Far from major universities (nearest Westfield State University, 37 mi)","cat":"universities","q":"measured"},{"text":"Few cultural venues or parks mapped here","cat":"green_culture","q":"measured"},{"text":"Quiet market \u2014 limited buzz / young-buyer pull","cat":"trendy","q":"proxy"},{"text":"Landlocked \u2014 no beach or notable water frontage","cat":"water_beach","q":"measured"},{"text":"Not near a major-employer growth hub","cat":"employer","q":"curated"}]},"2500344385":{"cool_spots":[{"name":"Brodie mountain view","cat":"Scenic view","lat":42.59268,"lon":-73.22618}],"reasons_buy":[{"text":"Typical home $434k \u2014 right in your $400\u2013600k budget","cat":"budget","q":"measured"},{"text":"Fast in-migration: population +10% (2010\u201320), top 20% statewide","cat":"population_growth","q":"measured"},{"text":"~28% below the MA median ($600k) \u2014 value entry","cat":"appreciation","q":"measured"},{"text":"Values up 40% over the last 5 years","cat":"appreciation","q":"measured"},{"text":"Its strongest factor: population growth / in-migration (80/100)","cat":"population_growth","q":"measured"}],"reasons_avoid":[{"text":"Car-dependent, low density (~19/sq mi)","cat":"walkability","q":"proxy"},{"text":"No MBTA rail station \u2014 car-dependent commute","cat":"transit","q":"measured"},{"text":"Few cultural venues or parks mapped here","cat":"green_culture","q":"measured"},{"text":"Little vacation / second-home demand","cat":"second_home","q":"proxy"},{"text":"Landlocked \u2014 no beach or notable water frontage","cat":"water_beach","q":"measured"},{"text":"Not near a major-employer growth hub","cat":"employer","q":"curated"}]},"2500345420":{"cool_spots":[{"name":"Donnelly Cr","cat":"Nature reserve","lat":42.06945,"lon":-73.2883},{"name":"Old Inn On The Green Cr","cat":"Nature reserve","lat":42.12385,"lon":-73.22819},{"name":"Umpachene Falls Park","cat":"Park","lat":42.09436,"lon":-73.2718},{"name":"The Southfield Store","cat":"Cafe","lat":42.10069,"lon":-73.23378}],"reasons_buy":[{"text":"Typical home $538k \u2014 right in your $400\u2013600k budget","cat":"budget","q":"measured"},{"text":"Premier vacation market (Cape / Berkshires) \u2014 strong second-home demand","cat":"second_home","q":"proxy"},{"text":"Plenty of green space \u2014 25 parks & reserves","cat":"green_culture","q":"measured"},{"text":"Its strongest factor: vacation / second-home demand (80/100)","cat":"second_home","q":"proxy"}],"reasons_avoid":[{"text":"Car-dependent, low density (~33/sq mi)","cat":"walkability","q":"proxy"},{"text":"No MBTA rail station \u2014 car-dependent commute","cat":"transit","q":"measured"},{"text":"Population nearly flat (+1% 2010\u201320)","cat":"population_growth","q":"measured"},{"text":"Not near a major-employer growth hub","cat":"employer","q":"curated"}]},"2500346225":{"cool_spots":[{"name":"Campers Beach","cat":"Beach","lat":42.68609,"lon":-73.09202},{"name":"Mohawk Theater","cat":"Theater","lat":42.69896,"lon":-73.11047},{"name":"Hunter Center","cat":"Arts center","lat":42.70161,"lon":-73.11507},{"name":"MCLA Gallery 51","cat":"Gallery","lat":42.69936,"lon":-73.1127},{"name":"Hard Cider Berkshire","cat":"Brewery","lat":42.69833,"lon":-73.15173},{"name":"Hoosic River Access","cat":"Nature reserve","lat":42.70214,"lon":-73.167},{"name":"Catherine Street Conservation Area","cat":"Nature reserve","lat":42.69252,"lon":-73.15154},{"name":"Colgrove Park","cat":"Park","lat":42.69955,"lon":-73.10862},{"name":"Freeman Park","cat":"Park","lat":42.7055,"lon":-73.10762},{"name":"Western Summit","cat":"Scenic view","lat":42.69735,"lon":-73.06596},{"name":"Sunset Rock","cat":"Scenic view","lat":42.69216,"lon":-73.06346},{"name":"North Adams Veterans Memorial","cat":"Historic site","lat":42.70026,"lon":-73.10916}],"reasons_buy":[{"text":"Under budget at $254k \u2014 room to invest or upgrade","cat":"budget","q":"measured"},{"text":"Strong track record \u2014 values up 48% in 5 years","cat":"appreciation","q":"measured"},{"text":"~58% below the MA median ($600k) \u2014 value entry","cat":"appreciation","q":"measured"},{"text":"Rich culture \u2014 5 museums, theaters & galleries","cat":"green_culture","q":"measured"},{"text":"Hot lately \u2014 up 20% in the last 3 years","cat":"trendy","q":"proxy"},{"text":"Plenty of green space \u2014 14 parks & reserves","cat":"green_culture","q":"measured"},{"text":"Next to Williams College (5 mi) \u2014 steady rental demand","cat":"universities","q":"measured"},{"text":"Its strongest factor: trendy / young-buyer demand (86/100)","cat":"trendy","q":"proxy"},{"text":"1 public beach in town","cat":"water_beach","q":"measured"}],"reasons_avoid":[{"text":"Population is shrinking (-5% 2010\u201320)","cat":"population_growth","q":"measured"},{"text":"No MBTA rail station \u2014 car-dependent commute","cat":"transit","q":"measured"},{"text":"Little vacation / second-home demand","cat":"second_home","q":"proxy"},{"text":"Not near a major-employer growth hub","cat":"employer","q":"curated"}]},"2500351580":{"cool_spots":[{"name":"County Beach","cat":"Beach","lat":42.18318,"lon":-73.05054},{"name":"Farmington River Wildlife Management Area","cat":"Nature reserve","lat":42.22958,"lon":-73.11152},{"name":"Hidden Pond Cr","cat":"Nature reserve","lat":42.19048,"lon":-73.02554},{"name":"Paige's","cat":"Restaurant","lat":42.18987,"lon":-73.0903},{"name":"Grouse House","cat":"Restaurant","lat":42.19675,"lon":-73.10021}],"reasons_buy":[{"text":"Typical home $515k \u2014 right in your $400\u2013600k budget","cat":"budget","q":"measured"},{"text":"Premier vacation market (Cape / Berkshires) \u2014 strong second-home demand","cat":"second_home","q":"proxy"},{"text":"Values up 43% over the last 5 years","cat":"appreciation","q":"measured"},{"text":"1 public beach in town","cat":"water_beach","q":"measured"},{"text":"Its strongest factor: vacation / second-home demand (80/100)","cat":"second_home","q":"proxy"}],"reasons_avoid":[{"text":"Car-dependent, low density (~46/sq mi)","cat":"walkability","q":"proxy"},{"text":"No MBTA rail station \u2014 car-dependent commute","cat":"transit","q":"measured"},{"text":"Population nearly flat (+1% 2010\u201320)","cat":"population_growth","q":"measured"},{"text":"Not near a major-employer growth hub","cat":"employer","q":"curated"}]},"2500353050":{"cool_spots":[{"name":"Ashmere Lake State Park","cat":"Nature reserve","lat":42.43978,"lon":-73.07691},{"name":"Peru Wildlife Management Area","cat":"Nature reserve","lat":42.4118,"lon":-73.0714}],"reasons_buy":[{"text":"Under budget at $328k \u2014 room to invest or upgrade","cat":"budget","q":"measured"},{"text":"~45% below the MA median ($600k) \u2014 value entry","cat":"appreciation","q":"measured"},{"text":"Values up 32% over the last 5 years","cat":"appreciation","q":"measured"},{"text":"Real vacation / second-home appeal","cat":"second_home","q":"proxy"},{"text":"Its strongest factor: school quality & trend (60/100)","cat":"schools","q":"curated"}],"reasons_avoid":[{"text":"Car-dependent, low density (~31/sq mi)","cat":"walkability","q":"proxy"},{"text":"Population is shrinking (-4% 2010\u201320)","cat":"population_growth","q":"measured"},{"text":"No MBTA rail station \u2014 car-dependent commute","cat":"transit","q":"measured"},{"text":"Quiet market \u2014 limited buzz / young-buyer pull","cat":"trendy","q":"proxy"},{"text":"Landlocked \u2014 no beach or notable water frontage","cat":"water_beach","q":"measured"},{"text":"Not near a major-employer growth hub","cat":"employer","q":"curated"}]},"2500353960":{"cool_spots":[{"name":"Childrens Museum of the Berkshires","cat":"Museum","lat":42.4518,"lon":-73.25276},{"name":"Berkshire Museum","cat":"Museum","lat":42.44734,"lon":-73.25383},{"name":"Colonial Theatre","cat":"Theater","lat":42.44623,"lon":-73.25399},{"name":"South Mountain Concert Hall","cat":"Theater","lat":42.42045,"lon":-73.26455},{"name":"Lichtenstein Center for the Arts","cat":"Arts center","lat":42.45047,"lon":-73.25215},{"name":"Berkshire Art Center","cat":"Arts center","lat":42.45075,"lon":-73.25358},{"name":"Nu Arts","cat":"Gallery","lat":42.45308,"lon":-73.25287},{"name":"Hot Plate Brewing Co","cat":"Brewery","lat":42.44939,"lon":-73.25304},{"name":"Wandering Star Brewing","cat":"Brewery","lat":42.4569,"lon":-73.2115},{"name":"Ramsey Beach","cat":"Nature reserve","lat":42.47314,"lon":-73.27361},{"name":"Tierney Conservation Area","cat":"Nature reserve","lat":42.4479,"lon":-73.28458},{"name":"Wellesley Park","cat":"Park","lat":42.43564,"lon":-73.2441}],"reasons_buy":[{"text":"Rich culture \u2014 8 museums, theaters & galleries","cat":"green_culture","q":"measured"},{"text":"Plenty of green space \u2014 43 parks & reserves","cat":"green_culture","q":"measured"},{"text":"Under budget at $306k \u2014 room to invest or upgrade","cat":"budget","q":"measured"},{"text":"~49% below the MA median ($600k) \u2014 value entry","cat":"appreciation","q":"measured"},{"text":"Walkable town center (~1,085/sq mi)","cat":"walkability","q":"proxy"},{"text":"Values up 42% over the last 5 years","cat":"appreciation","q":"measured"},{"text":"Lively local scene \u2014 2 breweries & 6 caf\u00e9s","cat":"trendy","q":"measured"}],"reasons_avoid":[{"text":"Population is shrinking (-2% 2010\u201320)","cat":"population_growth","q":"measured"},{"text":"No MBTA rail station \u2014 car-dependent commute","cat":"transit","q":"measured"},{"text":"Little vacation / second-home demand","cat":"second_home","q":"proxy"},{"text":"Not near a major-employer growth hub","cat":"employer","q":"curated"}]},"2500356795":{"cool_spots":[{"name":"Stevens Glen BNRC","cat":"Nature reserve","lat":42.35344,"lon":-73.35097},{"name":"Richmond Conservation","cat":"Nature reserve","lat":42.41636,"lon":-73.37558},{"name":"Observation Platform","cat":"Scenic view","lat":42.35385,"lon":-73.34766},{"name":"Richmond's Overlook","cat":"Scenic view","lat":42.41341,"lon":-73.37954}],"reasons_buy":[{"text":"Values up 37% over the last 5 years","cat":"appreciation","q":"measured"},{"text":"Real vacation / second-home appeal","cat":"second_home","q":"proxy"},{"text":"Its strongest factor: school quality & trend (60/100)","cat":"schools","q":"curated"}],"reasons_avoid":[{"text":"Population is shrinking (-5% 2010\u201320)","cat":"population_growth","q":"measured"},{"text":"Car-dependent, low density (~75/sq mi)","cat":"walkability","q":"proxy"},{"text":"Typical home $601k \u2014 above your $400\u2013600k budget","cat":"budget","q":"measured"},{"text":"No MBTA rail station \u2014 car-dependent commute","cat":"transit","q":"measured"},{"text":"Quiet market \u2014 limited buzz / young-buyer pull","cat":"trendy","q":"proxy"},{"text":"Not near a major-employer growth hub","cat":"employer","q":"curated"}]},"2500359665":{"cool_spots":[{"name":"Bob's Way","cat":"Nature reserve","lat":42.17567,"lon":-73.16233},{"name":"West Lake and Abbey Pond Flood Control Site","cat":"Nature reserve","lat":42.13542,"lon":-73.15214}],"reasons_buy":[{"text":"Typical home $451k \u2014 right in your $400\u2013600k budget","cat":"budget","q":"measured"},{"text":"Fast in-migration: population +8% (2010\u201320), top 27% statewide","cat":"population_growth","q":"measured"},{"text":"~25% below the MA median ($600k) \u2014 value entry","cat":"appreciation","q":"measured"},{"text":"Values up 40% over the last 5 years","cat":"appreciation","q":"measured"},{"text":"Real vacation / second-home appeal","cat":"second_home","q":"proxy"},{"text":"Its strongest factor: population growth / in-migration (73/100)","cat":"population_growth","q":"measured"}],"reasons_avoid":[{"text":"Car-dependent, low density (~19/sq mi)","cat":"walkability","q":"proxy"},{"text":"No MBTA rail station \u2014 car-dependent commute","cat":"transit","q":"measured"},{"text":"Few cultural venues or parks mapped here","cat":"green_culture","q":"measured"},{"text":"Not near a major-employer growth hub","cat":"employer","q":"curated"}]},"2500360225":{"cool_spots":[{"name":"Savoy Wildlife Management Area","cat":"Nature reserve","lat":42.56739,"lon":-73.07331}],"reasons_buy":[{"text":"Under budget at $319k \u2014 room to invest or upgrade","cat":"budget","q":"measured"},{"text":"~47% below the MA median ($600k) \u2014 value entry","cat":"appreciation","q":"measured"},{"text":"Values up 32% over the last 5 years","cat":"appreciation","q":"measured"},{"text":"Real vacation / second-home appeal","cat":"second_home","q":"proxy"},{"text":"Its strongest factor: school quality & trend (60/100)","cat":"schools","q":"curated"}],"reasons_avoid":[{"text":"Car-dependent, low density (~18/sq mi)","cat":"walkability","q":"proxy"},{"text":"Population is shrinking (-7% 2010\u201320)","cat":"population_growth","q":"measured"},{"text":"No MBTA rail station \u2014 car-dependent commute","cat":"transit","q":"measured"},{"text":"Few cultural venues or parks mapped here","cat":"green_culture","q":"measured"},{"text":"Quiet market \u2014 limited buzz / young-buyer pull","cat":"trendy","q":"proxy"},{"text":"Landlocked \u2014 no beach or notable water frontage","cat":"water_beach","q":"measured"},{"text":"Not near a major-employer growth hub","cat":"employer","q":"curated"}]},"2500361065":{"cool_spots":[{"name":"Sheffield Historical Society","cat":"Museum","lat":42.11133,"lon":-73.35311},{"name":"Saunders Site","cat":"Nature reserve","lat":42.11485,"lon":-73.32238},{"name":"Donnelly Cr","cat":"Nature reserve","lat":42.07441,"lon":-73.30109},{"name":"Barnard Memorial Park","cat":"Park","lat":42.11252,"lon":-73.35196},{"name":"view","cat":"Scenic view","lat":42.15483,"lon":-73.33127},{"name":"Battlesite Monument","cat":"Historic site","lat":42.14683,"lon":-73.38573},{"name":"trail parking","cat":"Attraction","lat":42.11925,"lon":-73.41245},{"name":"Sheffield Covered Bridge","cat":"Attraction","lat":42.12391,"lon":-73.3546},{"name":"The Marketplace Kitchen and Cafe","cat":"Cafe","lat":42.10915,"lon":-73.35316},{"name":"Roberto's Pizza","cat":"Restaurant","lat":42.11027,"lon":-73.35387}],"reasons_buy":[{"text":"Typical home $495k \u2014 right in your $400\u2013600k budget","cat":"budget","q":"measured"},{"text":"Values up 37% over the last 5 years","cat":"appreciation","q":"measured"},{"text":"Real vacation / second-home appeal","cat":"second_home","q":"proxy"},{"text":"Plenty of green space \u2014 23 parks & reserves","cat":"green_culture","q":"measured"},{"text":"Its strongest factor: school quality & trend (60/100)","cat":"schools","q":"curated"}],"reasons_avoid":[{"text":"Car-dependent, low density (~70/sq mi)","cat":"walkability","q":"proxy"},{"text":"No MBTA rail station \u2014 car-dependent commute","cat":"transit","q":"measured"},{"text":"Quiet market \u2014 limited buzz / young-buyer pull","cat":"trendy","q":"proxy"},{"text":"Not near a major-employer growth hub","cat":"employer","q":"curated"}]},"2500367595":{"cool_spots":[{"name":"Norman Rockwell Museum","cat":"Museum","lat":42.28783,"lon":-73.33594},{"name":"Chesterwood Museum","cat":"Museum","lat":42.26898,"lon":-73.35344},{"name":"Koussevitsky Music Shed","cat":"Theater","lat":42.34917,"lon":-73.30989},{"name":"Lenox Arts Center","cat":"Arts center","lat":42.29925,"lon":-73.29289},{"name":"Berle Sky Farm Conservation Restriction","cat":"Nature reserve","lat":42.26951,"lon":-73.35446},{"name":"Broad Meadows","cat":"Nature reserve","lat":42.29916,"lon":-73.32688},{"name":"Berkshire Botanical Gardens","cat":"Park","lat":42.30286,"lon":-73.33483},{"name":"Bidwell Park","cat":"Park","lat":42.28008,"lon":-73.30716},{"name":"Olivia's Overlook","cat":"Scenic view","lat":42.35187,"lon":-73.33773},{"name":"Butler Seat","cat":"Historic site","lat":42.27957,"lon":-73.30857},{"name":"Rostrum","cat":"Historic site","lat":42.27988,"lon":-73.3091},{"name":"Tent Club","cat":"Cafe","lat":42.34841,"lon":-73.30903}],"reasons_buy":[{"text":"Premier vacation market (islands / outer Cape) \u2014 strong second-home demand","cat":"second_home","q":"proxy"},{"text":"Strong track record \u2014 values up 45% in 5 years","cat":"appreciation","q":"measured"},{"text":"Rich culture \u2014 8 museums, theaters & galleries","cat":"green_culture","q":"measured"},{"text":"Plenty of green space \u2014 21 parks & reserves","cat":"green_culture","q":"measured"},{"text":"Growing population: +4% (2010\u201320)","cat":"population_growth","q":"measured"},{"text":"Its strongest factor: vacation / second-home demand (100/100)","cat":"second_home","q":"proxy"}],"reasons_avoid":[{"text":"Car-dependent, low density (~89/sq mi)","cat":"walkability","q":"proxy"},{"text":"Typical home $741k \u2014 above your $400\u2013600k budget","cat":"budget","q":"measured"},{"text":"No MBTA rail station \u2014 car-dependent commute","cat":"transit","q":"measured"},{"text":"Not near a major-employer growth hub","cat":"employer","q":"curated"}]},"2500371095":{"cool_spots":[{"name":"Cr #5","cat":"Nature reserve","lat":42.28047,"lon":-73.2029},{"name":"Cr #5","cat":"Nature reserve","lat":42.27916,"lon":-73.20458},{"name":"Town Park","cat":"Park","lat":42.2449,"lon":-73.20389}],"reasons_buy":[{"text":"Fast in-migration: population +31% (2010\u201320), top 1% statewide","cat":"population_growth","q":"measured"},{"text":"Premier vacation market (Cape / Berkshires) \u2014 strong second-home demand","cat":"second_home","q":"proxy"},{"text":"Its strongest factor: population growth / in-migration (99/100)","cat":"population_growth","q":"measured"}],"reasons_avoid":[{"text":"Car-dependent, low density (~23/sq mi)","cat":"walkability","q":"proxy"},{"text":"Typical home $674k \u2014 above your $400\u2013600k budget","cat":"budget","q":"measured"},{"text":"No MBTA rail station \u2014 car-dependent commute","cat":"transit","q":"measured"},{"text":"Market cooling \u2014 +2% over 3 years","cat":"trendy","q":"proxy"},{"text":"Quiet market \u2014 limited buzz / young-buyer pull","cat":"trendy","q":"proxy"},{"text":"Landlocked \u2014 no beach or notable water frontage","cat":"water_beach","q":"measured"},{"text":"Not near a major-employer growth hub","cat":"employer","q":"curated"}]},"2500373335":{"cool_spots":[{"name":"Roosevelt Reserve, Berkshire Natural Resources Council (BNRC)","cat":"Nature reserve","lat":42.35008,"lon":-73.07472},{"name":"Westfield River Fee","cat":"Nature reserve","lat":42.36315,"lon":-73.08299},{"name":"Partial view north","cat":"Scenic view","lat":42.40293,"lon":-73.18827},{"name":"stone chimney","cat":"Historic site","lat":42.36356,"lon":-73.22582}],"reasons_buy":[{"text":"Under budget at $392k \u2014 room to invest or upgrade","cat":"budget","q":"measured"},{"text":"~35% below the MA median ($600k) \u2014 value entry","cat":"appreciation","q":"measured"},{"text":"Values up 36% over the last 5 years","cat":"appreciation","q":"measured"},{"text":"Real vacation / second-home appeal","cat":"second_home","q":"proxy"},{"text":"Its strongest factor: school quality & trend (60/100)","cat":"schools","q":"curated"}],"reasons_avoid":[{"text":"Population is shrinking (-8% 2010\u201320)","cat":"population_growth","q":"measured"},{"text":"Car-dependent, low density (~13/sq mi)","cat":"walkability","q":"proxy"},{"text":"No MBTA rail station \u2014 car-dependent commute","cat":"transit","q":"measured"},{"text":"Few cultural venues or parks mapped here","cat":"green_culture","q":"measured"},{"text":"Quiet market \u2014 limited buzz / young-buyer pull","cat":"trendy","q":"proxy"},{"text":"Not near a major-employer growth hub","cat":"employer","q":"curated"}]},"2500377990":{"cool_spots":[{"name":"The Foundry","cat":"Theater","lat":42.33335,"lon":-73.36792},{"name":"TurnPark Art Space","cat":"Arts center","lat":42.33268,"lon":-73.36969},{"name":"Maple Hill Wildlife Management Area","cat":"Nature reserve","lat":42.32113,"lon":-73.38444},{"name":"Seitz Reserve, Berkshire Natural Resource Council (BNRC)","cat":"Nature reserve","lat":42.27061,"lon":-73.3687},{"name":"Village School Playground","cat":"Park","lat":42.33576,"lon":-73.37516},{"name":"No. Six Depot Cafe","cat":"Cafe","lat":42.33411,"lon":-73.36848},{"name":"Shaker Mill Tavern","cat":"Restaurant","lat":42.33539,"lon":-73.36928}],"reasons_buy":[{"text":"Premier vacation market (Cape / Berkshires) \u2014 strong second-home demand","cat":"second_home","q":"proxy"},{"text":"Strong track record \u2014 values up 50% in 5 years","cat":"appreciation","q":"measured"},{"text":"Its strongest factor: vacation / second-home demand (80/100)","cat":"second_home","q":"proxy"}],"reasons_avoid":[{"text":"Car-dependent, low density (~73/sq mi)","cat":"walkability","q":"proxy"},{"text":"Typical home $668k \u2014 above your $400\u2013600k budget","cat":"budget","q":"measured"},{"text":"No MBTA rail station \u2014 car-dependent commute","cat":"transit","q":"measured"},{"text":"Landlocked \u2014 no beach or notable water frontage","cat":"water_beach","q":"measured"},{"text":"Not near a major-employer growth hub","cat":"employer","q":"curated"}]},"2500379985":{"cool_spots":[{"name":"Farm Museum","cat":"Museum","lat":42.72352,"lon":-73.22462},{"name":"Williamstown House of Local History","cat":"Museum","lat":42.71314,"lon":-73.21148},{"name":"Adams Memorial Theatre","cat":"Theater","lat":42.71369,"lon":-73.20733},{"name":"Goodrich Hall","cat":"Arts center","lat":42.71163,"lon":-73.20295},{"name":"Cold Spring Preserve","cat":"Nature reserve","lat":42.70228,"lon":-73.22192},{"name":"Green River Road","cat":"Nature reserve","lat":42.67673,"lon":-73.22039},{"name":"Blair Hiking Area","cat":"Park","lat":42.6498,"lon":-73.24594},{"name":"Linear Park","cat":"Park","lat":42.70857,"lon":-73.19927},{"name":"Vista","cat":"Scenic view","lat":42.64108,"lon":-73.17596},{"name":"The Hopper","cat":"Scenic view","lat":42.64951,"lon":-73.18191},{"name":"Veterans' Memorial","cat":"Historic site","lat":42.71352,"lon":-73.2096},{"name":"Lt. Herbert Allan Field Memorial","cat":"Historic site","lat":42.73221,"lon":-73.19711}],"reasons_buy":[{"text":"Typical home $492k \u2014 right in your $400\u2013600k budget","cat":"budget","q":"measured"},{"text":"Premier vacation market (Cape / Berkshires) \u2014 strong second-home demand","cat":"second_home","q":"proxy"},{"text":"Strong public schools (4/5)","cat":"schools","q":"curated"},{"text":"Rich culture \u2014 7 museums, theaters & galleries","cat":"green_culture","q":"measured"},{"text":"Plenty of green space \u2014 27 parks & reserves","cat":"green_culture","q":"measured"},{"text":"Next to Williams College (2 mi) \u2014 steady rental demand","cat":"universities","q":"measured"},{"text":"Values up 34% over the last 5 years","cat":"appreciation","q":"measured"},{"text":"Its strongest factor: school quality & trend (82/100)","cat":"schools","q":"curated"}],"reasons_avoid":[{"text":"Population is shrinking (-3% 2010\u201320)","cat":"population_growth","q":"measured"},{"text":"No MBTA rail station \u2014 car-dependent commute","cat":"transit","q":"measured"},{"text":"Landlocked \u2014 no beach or notable water frontage","cat":"water_beach","q":"measured"},{"text":"Not near a major-employer growth hub","cat":"employer","q":"curated"}]},"2500380685":{"cool_spots":[{"name":"Savoy Wildlife Management Area","cat":"Nature reserve","lat":42.55346,"lon":-73.05632},{"name":"Westfield River Access","cat":"Nature reserve","lat":42.49479,"lon":-72.98489},{"name":"Notchview - Trustees of Reservations","cat":"Park","lat":42.5051,"lon":-73.037},{"name":"Friendly Fred's Convenient Store","cat":"Cafe","lat":42.51127,"lon":-73.08399}],"reasons_buy":[{"text":"Under budget at $351k \u2014 room to invest or upgrade","cat":"budget","q":"measured"},{"text":"~41% below the MA median ($600k) \u2014 value entry","cat":"appreciation","q":"measured"},{"text":"Values up 36% over the last 5 years","cat":"appreciation","q":"measured"},{"text":"Its strongest factor: school quality & trend (60/100)","cat":"schools","q":"curated"}],"reasons_avoid":[{"text":"Population is shrinking (-8% 2010\u201320)","cat":"population_growth","q":"measured"},{"text":"Car-dependent, low density (~24/sq mi)","cat":"walkability","q":"proxy"},{"text":"No MBTA rail station \u2014 car-dependent commute","cat":"transit","q":"measured"},{"text":"Little vacation / second-home demand","cat":"second_home","q":"proxy"},{"text":"Landlocked \u2014 no beach or notable water frontage","cat":"water_beach","q":"measured"},{"text":"Not near a major-employer growth hub","cat":"employer","q":"curated"}]},"2500500520":{"cool_spots":[{"name":"Keith\"S Tree Farm","cat":"Nature reserve","lat":41.70712,"lon":-70.9013},{"name":"Con Comm Land Near Acushnet River","cat":"Nature reserve","lat":41.66719,"lon":-70.90883},{"name":"Acushnet Sawmill","cat":"Park","lat":41.68378,"lon":-70.9196},{"name":"Lantern Ln/Davis Park","cat":"Park","lat":41.74433,"lon":-70.8907},{"name":"Acushnet Veterans Memorial","cat":"Historic site","lat":41.69007,"lon":-70.90405},{"name":"The Country Whip","cat":"Restaurant","lat":41.73676,"lon":-70.89569},{"name":"Blue Lantern Cafe","cat":"Bar","lat":41.7089,"lon":-70.88816}],"reasons_buy":[{"text":"Typical home $533k \u2014 right in your $400\u2013600k budget","cat":"budget","q":"measured"},{"text":"Plenty of green space \u2014 27 parks & reserves","cat":"green_culture","q":"measured"},{"text":"Its strongest factor: school quality & trend (60/100)","cat":"schools","q":"curated"}],"reasons_avoid":[{"text":"No MBTA rail station \u2014 car-dependent commute","cat":"transit","q":"measured"},{"text":"Little vacation / second-home demand","cat":"second_home","q":"proxy"},{"text":"Not near a major-employer growth hub","cat":"employer","q":"curated"}]},"2500502690":{"cool_spots":[{"name":"Attleboro Arts Museum","cat":"Museum","lat":41.94438,"lon":-71.28043},{"name":"Attleboro Area Industrial Museum","cat":"Museum","lat":41.94307,"lon":-71.28184},{"name":"Triboro Youth Theatre","cat":"Theater","lat":41.94258,"lon":-71.28219},{"name":"Union Theatre","cat":"Theater","lat":41.94218,"lon":-71.28243},{"name":"Chartley Brook","cat":"Nature reserve","lat":41.92864,"lon":-71.23663},{"name":"Manchester Reservoir","cat":"Nature reserve","lat":41.94073,"lon":-71.32734},{"name":"Bungay Park","cat":"Park","lat":41.95217,"lon":-71.28226},{"name":"South Attleboro Park","cat":"Park","lat":41.90688,"lon":-71.3679},{"name":"Frank R. Sweet Memorial Forest Memorial","cat":"Historic site","lat":41.93837,"lon":-71.29896},{"name":"Spanish War Veterans Memorial","cat":"Historic site","lat":41.93839,"lon":-71.29492},{"name":"The Glen","cat":"Attraction","lat":41.92164,"lon":-71.23564},{"name":"Deborah's Garden","cat":"Attraction","lat":41.92125,"lon":-71.23578}],"reasons_buy":[{"text":"On the MBTA commuter rail to Boston","cat":"transit","q":"measured"},{"text":"Typical home $539k \u2014 right in your $400\u2013600k budget","cat":"budget","q":"measured"},{"text":"Very walkable, urban density (~1,735/sq mi)","cat":"walkability","q":"proxy"},{"text":"Rich culture \u2014 5 museums, theaters & galleries","cat":"green_culture","q":"measured"},{"text":"Plenty of green space \u2014 35 parks & reserves","cat":"green_culture","q":"measured"},{"text":"Values up 34% over the last 5 years","cat":"appreciation","q":"measured"},{"text":"Growing population: +7% (2010\u201320)","cat":"population_growth","q":"measured"},{"text":"Lively local scene \u2014 7 caf\u00e9s","cat":"trendy","q":"measured"},{"text":"Its strongest factor: rail transit access & expansion (90/100)","cat":"transit","q":"measured"}],"reasons_avoid":[{"text":"Little vacation / second-home demand","cat":"second_home","q":"proxy"},{"text":"Not near a major-employer growth hub","cat":"employer","q":"curated"}]},"2500505280":{"cool_spots":[{"name":"Dighton Rock State Park","cat":"Park","lat":41.81288,"lon":-71.10643},{"name":"Berkley Park","cat":"Park","lat":41.83427,"lon":-71.10686},{"name":"Bay View Cafe","cat":"Restaurant","lat":41.81181,"lon":-71.09797}],"reasons_buy":[{"text":"Transit upgrade underway: On the South Coast Rail corridor (nearest station East Taunton)","cat":"transit","q":"curated"},{"text":"Values up 33% over the last 5 years","cat":"appreciation","q":"measured"},{"text":"Growing population: +6% (2010\u201320)","cat":"population_growth","q":"measured"},{"text":"Its strongest factor: rail transit access & expansion (95/100)","cat":"transit","q":"measured"}],"reasons_avoid":[{"text":"Typical home $630k \u2014 above your $400\u2013600k budget","cat":"budget","q":"measured"},{"text":"Few cultural venues or parks mapped here","cat":"green_culture","q":"measured"},{"text":"Little vacation / second-home demand","cat":"second_home","q":"proxy"},{"text":"Not near a major-employer growth hub","cat":"employer","q":"curated"},{"text":"No MBTA rail station \u2014 car-dependent commute","cat":"transit","q":"measured"}]},"2500516425":{"cool_spots":[{"name":"Little Beach","cat":"Beach","lat":41.512,"lon":-71.00774},{"name":"Round Hill Beach","cat":"Beach","lat":41.5405,"lon":-70.93588},{"name":"Round Hill Beach","cat":"Beach","lat":41.54041,"lon":-70.93271},{"name":"Round Hill Beach","cat":"Beach","lat":41.53865,"lon":-70.94531},{"name":"Round Hill Beach","cat":"Beach","lat":41.5401,"lon":-70.94092},{"name":"Doll Museum","cat":"Museum","lat":41.57538,"lon":-71.0031},{"name":"Main Auditorium","cat":"Theater","lat":41.62915,"lon":-71.00473},{"name":"Dartmouth Cultural Center","cat":"Arts center","lat":41.58888,"lon":-70.94608},{"name":"Seagrass Studio","cat":"Gallery","lat":41.58667,"lon":-70.94521},{"name":"Wernick Farm Reserve","cat":"Nature reserve","lat":41.69008,"lon":-71.04755},{"name":"Ocean View Farm Reserve","cat":"Nature reserve","lat":41.53225,"lon":-71.00607},{"name":"Dartmouth Park","cat":"Park","lat":41.63552,"lon":-71.0116}],"reasons_buy":[{"text":"Oceanfront town","cat":"water_beach","q":"curated"},{"text":"5 public beaches in town","cat":"water_beach","q":"measured"},{"text":"Rich culture \u2014 4 museums, theaters & galleries","cat":"green_culture","q":"measured"},{"text":"Plenty of green space \u2014 128 parks & reserves","cat":"green_culture","q":"measured"},{"text":"Values up 35% over the last 5 years","cat":"appreciation","q":"measured"},{"text":"Lively local scene \u2014 8 caf\u00e9s","cat":"trendy","q":"measured"},{"text":"Real vacation / second-home appeal","cat":"second_home","q":"proxy"},{"text":"Next to UMass Dartmouth (5 mi) \u2014 steady rental demand","cat":"universities","q":"measured"}],"reasons_avoid":[{"text":"Population is shrinking (-1% 2010\u201320)","cat":"population_growth","q":"measured"},{"text":"Typical home $611k \u2014 above your $400\u2013600k budget","cat":"budget","q":"measured"},{"text":"No MBTA rail station \u2014 car-dependent commute","cat":"transit","q":"measured"},{"text":"Not near a major-employer growth hub","cat":"employer","q":"curated"}]},"2500516950":{"cool_spots":[{"name":"Broad Cove Marsh","cat":"Nature reserve","lat":41.79783,"lon":-71.12816},{"name":"Town Forest","cat":"Nature reserve","lat":41.86281,"lon":-71.15411},{"name":"Sweets Knoll State Park","cat":"Park","lat":41.83136,"lon":-71.11621},{"name":"Lane Field","cat":"Park","lat":41.81353,"lon":-71.11775},{"name":"Shaws Boat Yard","cat":"Marina","lat":41.81509,"lon":-71.11593},{"name":"C & N Pizza","cat":"Restaurant","lat":41.8176,"lon":-71.12063}],"reasons_buy":[{"text":"Fast in-migration: population +14% (2010\u201320), top 6% statewide","cat":"population_growth","q":"measured"},{"text":"Typical home $578k \u2014 right in your $400\u2013600k budget","cat":"budget","q":"measured"},{"text":"Its strongest factor: population growth / in-migration (94/100)","cat":"population_growth","q":"measured"}],"reasons_avoid":[{"text":"No MBTA rail station \u2014 car-dependent commute","cat":"transit","q":"measured"},{"text":"Little vacation / second-home demand","cat":"second_home","q":"proxy"},{"text":"Not near a major-employer growth hub","cat":"employer","q":"curated"}]},"2500520100":{"cool_spots":[{"name":"Children's Museum Easton","cat":"Museum","lat":42.06688,"lon":-71.10251},{"name":"Shovel Town Brewery","cat":"Brewery","lat":42.07148,"lon":-71.10324},{"name":"Water Department Land","cat":"Nature reserve","lat":42.00465,"lon":-71.15259},{"name":"Hockomock Swamp Wildlife Management Area","cat":"Nature reserve","lat":42.01408,"lon":-71.10466},{"name":"Queset Gardens","cat":"Park","lat":42.0671,"lon":-71.10658},{"name":"Blackbrook Nature Reserve","cat":"Park","lat":42.02936,"lon":-71.11572},{"name":"Civil War Monument","cat":"Historic site","lat":42.03595,"lon":-71.09828},{"name":"The Old Bay Road","cat":"Historic site","lat":42.00474,"lon":-71.12063},{"name":"Ames Boulder","cat":"Attraction","lat":42.0614,"lon":-71.16242},{"name":"Starbucks","cat":"Cafe","lat":42.02537,"lon":-71.14358},{"name":"Aroma Joe's","cat":"Cafe","lat":42.02398,"lon":-71.12281},{"name":"The Farmer's Daughter","cat":"Restaurant","lat":42.06614,"lon":-71.10157}],"reasons_buy":[{"text":"Strong public schools (4/5)","cat":"schools","q":"curated"},{"text":"Fast in-migration: population +8% (2010\u201320), top 26% statewide","cat":"population_growth","q":"measured"},{"text":"Plenty of green space \u2014 126 parks & reserves","cat":"green_culture","q":"measured"},{"text":"Next to Stonehill College (2 mi) \u2014 steady rental demand","cat":"universities","q":"measured"},{"text":"Values up 31% over the last 5 years","cat":"appreciation","q":"measured"},{"text":"Its strongest factor: school quality & trend (82/100)","cat":"schools","q":"curated"}],"reasons_avoid":[{"text":"Typical home $697k \u2014 above your $400\u2013600k budget","cat":"budget","q":"measured"},{"text":"No MBTA rail station \u2014 car-dependent commute","cat":"transit","q":"measured"},{"text":"Little vacation / second-home demand","cat":"second_home","q":"proxy"},{"text":"Not near a major-employer growth hub","cat":"employer","q":"curated"}]},"2500522130":{"cool_spots":[{"name":"Fort Phoenix Beach State Reservation","cat":"Nature reserve","lat":41.62507,"lon":-70.89822},{"name":"South Shore Salt Marsh Wildlife Management Area","cat":"Nature reserve","lat":41.63228,"lon":-70.85409},{"name":"Livesey Park","cat":"Park","lat":41.65756,"lon":-70.90621},{"name":"South Shore Marshes Wildlife Management Area","cat":"Park","lat":41.62872,"lon":-70.85587},{"name":"Fort Phoenix","cat":"Historic site","lat":41.62428,"lon":-70.90226},{"name":"The Nook","cat":"Cafe","lat":41.63767,"lon":-70.90119},{"name":"Mirasols Cafe","cat":"Cafe","lat":41.64314,"lon":-70.89089},{"name":"Margaret's Resturant","cat":"Restaurant","lat":41.63399,"lon":-70.90473},{"name":"Elizabeth's","cat":"Restaurant","lat":41.63395,"lon":-70.90502}],"reasons_buy":[{"text":"Typical home $504k \u2014 right in your $400\u2013600k budget","cat":"budget","q":"measured"},{"text":"Walkable town center (~1,286/sq mi)","cat":"walkability","q":"proxy"},{"text":"Oceanfront town","cat":"water_beach","q":"curated"},{"text":"Values up 31% over the last 5 years","cat":"appreciation","q":"measured"},{"text":"Plenty of green space \u2014 106 parks & reserves","cat":"green_culture","q":"measured"},{"text":"Real vacation / second-home appeal","cat":"second_home","q":"proxy"},{"text":"Its strongest factor: walkability (75/100)","cat":"walkability","q":"proxy"}],"reasons_avoid":[{"text":"No MBTA rail station \u2014 car-dependent commute","cat":"transit","q":"measured"},{"text":"Population nearly flat (+0% 2010\u201320)","cat":"population_growth","q":"measured"},{"text":"Not near a major-employer growth hub","cat":"employer","q":"curated"}]},"2500523000":{"cool_spots":[{"name":"Children\u2019s Museum of Greater Fall River","cat":"Museum","lat":41.70803,"lon":-71.1539},{"name":"Brian Fox Studios","cat":"Gallery","lat":41.71848,"lon":-71.15531},{"name":"Chew Playground","cat":"Park","lat":41.68538,"lon":-71.16977},{"name":"Father Kelly Park","cat":"Park","lat":41.68682,"lon":-71.17002},{"name":"Portas Da Cidade","cat":"Historic site","lat":41.70198,"lon":-71.16441},{"name":"USS Massachusetts","cat":"Attraction","lat":41.70689,"lon":-71.16297},{"name":"USS Lionfish","cat":"Attraction","lat":41.70609,"lon":-71.16294},{"name":"Starbucks","cat":"Cafe","lat":41.67166,"lon":-71.16025},{"name":"Honey Dew","cat":"Cafe","lat":41.69748,"lon":-71.14789},{"name":"Tipsy Toboggan Fireside Pub","cat":"Restaurant","lat":41.70017,"lon":-71.16754},{"name":"Ice Cream Stand","cat":"Restaurant","lat":41.69461,"lon":-71.16354}],"reasons_buy":[{"text":"Transit upgrade underway: South Coast Rail (new service 2025-26)","cat":"transit","q":"curated"},{"text":"On the MBTA commuter rail to Boston","cat":"transit","q":"measured"},{"text":"Very walkable, urban density (~2,838/sq mi)","cat":"walkability","q":"proxy"},{"text":"Typical home $451k \u2014 right in your $400\u2013600k budget","cat":"budget","q":"measured"},{"text":"Plenty of green space \u2014 38 parks & reserves","cat":"green_culture","q":"measured"},{"text":"~25% below the MA median ($600k) \u2014 value entry","cat":"appreciation","q":"measured"},{"text":"Values up 36% over the last 5 years","cat":"appreciation","q":"measured"},{"text":"Growing population: +6% (2010\u201320)","cat":"population_growth","q":"measured"}],"reasons_avoid":[{"text":"Schools below the state average (2/5)","cat":"schools","q":"curated"},{"text":"Not near a major-employer growth hub","cat":"employer","q":"curated"}]},"2500525240":{"cool_spots":[{"name":"NEFF Property","cat":"Nature reserve","lat":41.77837,"lon":-70.97463},{"name":"Bosworth Lot","cat":"Nature reserve","lat":41.77562,"lon":-70.97318},{"name":"Cathedral Camp","cat":"Park","lat":41.77982,"lon":-70.93337},{"name":"Hilltop Park","cat":"Park","lat":41.77501,"lon":-70.95361},{"name":"Helicopter Memorial","cat":"Historic site","lat":41.76386,"lon":-71.01404},{"name":"PizzaExpress","cat":"Restaurant","lat":41.77128,"lon":-70.95489},{"name":"Neon Marketplace 3","cat":"Restaurant","lat":41.76296,"lon":-71.09582}],"reasons_buy":[{"text":"Transit upgrade underway: South Coast Rail (new service 2025-26)","cat":"transit","q":"curated"},{"text":"On the MBTA commuter rail to Boston","cat":"transit","q":"measured"},{"text":"Typical home $588k \u2014 right in your $400\u2013600k budget","cat":"budget","q":"measured"},{"text":"Hot lately \u2014 up 19% in the last 3 years","cat":"trendy","q":"proxy"},{"text":"Values up 35% over the last 5 years","cat":"appreciation","q":"measured"},{"text":"Growing population: +4% (2010\u201320)","cat":"population_growth","q":"measured"},{"text":"Plenty of green space \u2014 12 parks & reserves","cat":"green_culture","q":"measured"}],"reasons_avoid":[{"text":"Little vacation / second-home demand","cat":"second_home","q":"proxy"},{"text":"Not near a major-employer growth hub","cat":"employer","q":"curated"}]},"2500538225":{"cool_spots":[{"name":"Maple Park Conservation Area","cat":"Nature reserve","lat":42.04743,"lon":-71.19452},{"name":"Zecher Lot","cat":"Nature reserve","lat":41.99048,"lon":-71.25088},{"name":"Lowney Common","cat":"Park","lat":42.03223,"lon":-71.21933},{"name":"Mansfield Memorial Park","cat":"Park","lat":42.03234,"lon":-71.20806},{"name":"World War II Veterans Memorial","cat":"Historic site","lat":42.02488,"lon":-71.21422},{"name":"Cobbler's Cornner","cat":"Historic site","lat":42.00911,"lon":-71.22128},{"name":"Caf\u00e9 on the Common","cat":"Cafe","lat":42.02417,"lon":-71.21587},{"name":"Trattoria Della Nonna","cat":"Restaurant","lat":42.02815,"lon":-71.21799},{"name":"Mansfield House of Pizza","cat":"Restaurant","lat":42.02846,"lon":-71.21791}],"reasons_buy":[{"text":"Strong public schools (4/5)","cat":"schools","q":"curated"},{"text":"On the MBTA commuter rail to Boston","cat":"transit","q":"measured"},{"text":"Walkable town center (~1,187/sq mi)","cat":"walkability","q":"proxy"},{"text":"Hot lately \u2014 up 18% in the last 3 years","cat":"trendy","q":"proxy"},{"text":"Values up 35% over the last 5 years","cat":"appreciation","q":"measured"},{"text":"Plenty of green space \u2014 42 parks & reserves","cat":"green_culture","q":"measured"},{"text":"Its strongest factor: school quality & trend (82/100)","cat":"schools","q":"curated"}],"reasons_avoid":[{"text":"Typical home $716k \u2014 above your $400\u2013600k budget","cat":"budget","q":"measured"},{"text":"Little vacation / second-home demand","cat":"second_home","q":"proxy"}]},"2500545000":{"cool_spots":[{"name":"Medeiros Beach","cat":"Beach","lat":41.60339,"lon":-70.90251},{"name":"Noname Beach","cat":"Beach","lat":41.60269,"lon":-70.91414},{"name":"New Bedford Art Museum","cat":"Museum","lat":41.63512,"lon":-70.92673},{"name":"New Bedford Fishing Heritage Center","cat":"Museum","lat":41.63618,"lon":-70.92354},{"name":"TL6 the Gallery","cat":"Gallery","lat":41.63525,"lon":-70.92633},{"name":"Flora Pierce Nature T","cat":"Nature reserve","lat":41.67471,"lon":-70.9726},{"name":"New Bedford Cr4","cat":"Nature reserve","lat":41.72225,"lon":-70.96558},{"name":"Buttonwood Park","cat":"Park","lat":41.63122,"lon":-70.95143},{"name":"Central New Bedford Historic District","cat":"Park","lat":41.64983,"lon":-70.92643},{"name":"Benjamin Rose","cat":"Historic site","lat":41.62,"lon":-70.91932},{"name":"New Bedford Merchant Mariners","cat":"Historic site","lat":41.59451,"lon":-70.90083},{"name":"Seamen's Bethel","cat":"Attraction","lat":41.63504,"lon":-70.92377}],"reasons_buy":[{"text":"On the MBTA commuter rail to Boston","cat":"transit","q":"measured"},{"text":"Transit upgrade underway: South Coast Rail (new service 2025-26)","cat":"transit","q":"curated"},{"text":"Very walkable, urban density (~5,053/sq mi)","cat":"walkability","q":"proxy"},{"text":"Typical home $440k \u2014 right in your $400\u2013600k budget","cat":"budget","q":"measured"},{"text":"Rich culture \u2014 9 museums, theaters & galleries","cat":"green_culture","q":"measured"},{"text":"Plenty of green space \u2014 44 parks & reserves","cat":"green_culture","q":"measured"},{"text":"Near major-employer expansion","cat":"employer","q":"curated"},{"text":"2 public beaches in town","cat":"water_beach","q":"measured"},{"text":"~27% below the MA median ($600k) \u2014 value entry","cat":"appreciation","q":"measured"},{"text":"Hot lately \u2014 up 19% in the last 3 years","cat":"trendy","q":"proxy"}],"reasons_avoid":[{"text":"Schools below the state average (2/5)","cat":"schools","q":"curated"}]},"2500546598":{"cool_spots":[{"name":"Whiting's Pond Beach","cat":"Beach","lat":41.99464,"lon":-71.33631},{"name":"Barbara Road Beach","cat":"Beach","lat":41.96904,"lon":-71.32643},{"name":"Falls Fire Barn Museum","cat":"Museum","lat":41.97118,"lon":-71.31391},{"name":"Hirsch Property","cat":"Nature reserve","lat":41.92512,"lon":-71.37787},{"name":"Chastenet Land","cat":"Nature reserve","lat":41.9738,"lon":-71.34796},{"name":"Girl Scout Well Field","cat":"Park","lat":41.94119,"lon":-71.37268},{"name":"Adamsdale Well Field","cat":"Park","lat":41.9221,"lon":-71.37765},{"name":"Lookout Point","cat":"Scenic view","lat":42.00109,"lon":-71.31289},{"name":"Sunrise Hill Memorial Park","cat":"Historic site","lat":42.00044,"lon":-71.31303},{"name":"The George E. Kissick Memorial Recreation Center Plaque","cat":"Historic site","lat":41.99969,"lon":-71.31865},{"name":"Coffee Connection","cat":"Cafe","lat":41.99472,"lon":-71.32925},{"name":"Ninety Nine Restaurant & Pub","cat":"Restaurant","lat":41.93172,"lon":-71.35205}],"reasons_buy":[{"text":"Walkable town center (~1,635/sq mi)","cat":"walkability","q":"proxy"},{"text":"Hot lately \u2014 up 19% in the last 3 years","cat":"trendy","q":"proxy"},{"text":"Values up 34% over the last 5 years","cat":"appreciation","q":"measured"},{"text":"Growing population: +6% (2010\u201320)","cat":"population_growth","q":"measured"},{"text":"Plenty of green space \u2014 22 parks & reserves","cat":"green_culture","q":"measured"},{"text":"2 public beaches in town","cat":"water_beach","q":"measured"},{"text":"Its strongest factor: walkability (80/100)","cat":"walkability","q":"proxy"}],"reasons_avoid":[{"text":"Typical home $609k \u2014 above your $400\u2013600k budget","cat":"budget","q":"measured"},{"text":"No MBTA rail station \u2014 car-dependent commute","cat":"transit","q":"measured"},{"text":"Little vacation / second-home demand","cat":"second_home","q":"proxy"},{"text":"Not near a major-employer growth hub","cat":"employer","q":"curated"}]},"2500549970":{"cool_spots":[{"name":"Watson Theatre","cat":"Theater","lat":41.96814,"lon":-71.18451},{"name":"Hill St. Land","cat":"Nature reserve","lat":41.96159,"lon":-71.15377},{"name":"Edith Read","cat":"Nature reserve","lat":41.96091,"lon":-71.23294},{"name":"Everett Leonard Park","cat":"Park","lat":41.93369,"lon":-71.1935},{"name":"Everett Leonard Field","cat":"Park","lat":41.93466,"lon":-71.19671},{"name":"Path Continues","cat":"Attraction","lat":41.95425,"lon":-71.23803},